{"allLines":[{"deviceType":"B","onlyOneRoute":false,"color":"8f4099","routeForward":{"duration":"00:40","name":"Metro - Rafinaria Astra","moveDirection":"F","stations":[{"lng":25.96215,"geohash":"sxfryf3j1g","stationName":"Metro","lat":44.96929,"stationId":"PL_B_1_F_0"},{"lng":25.96989,"geohash":"sxfrycw9n6","stationName":"Decathlon","lat":44.96448,"stationId":"PL_B_1_F_1"},{"lng":25.98191,"geohash":"sxfrz0xkwq","stationName":"Km 5","lat":44.95961,"stationId":"PL_B_1_F_2"},{"lng":25.98853,"geohash":"sxfrz2hk0x","stationName":"Meteo","lat":44.95678,"stationId":"PL_B_1_F_3"},{"lng":25.99454,"geohash":"sxfrxx8sks","stationName":"Cablul Romanesc","lat":44.95406,"stationId":"PL_B_1_F_4"},{"lng":26.00364,"geohash":"sxfrxwzkbs","stationName":"8 martie","lat":44.95003,"stationId":"PL_B_1_F_5"},{"lng":26.0110653637,"geohash":"sxfrxykdvg","stationName":"Piata Mihai Viteazul","lat":44.94693323,"stationId":"PL_B_1_F_6"},{"lng":26.02051,"geohash":"sxfx8j7t3v","stationName":"Galeriile Comerciale","lat":44.94188,"stationId":"PL_B_1_F_7"},{"lng":26.02515,"geohash":"sxfx8hybjc","stationName":"PTTR","lat":44.93821,"stationId":"PL_B_1_F_8"},{"lng":26.02678,"geohash":"sxfx87bhgu","stationName":"Ana Ipatescu","lat":44.93355,"stationId":"PL_B_1_F_9"},{"lng":26.0278323887,"geohash":"sxfx872fk2","stationName":"13 Decembrie","lat":44.9303520435,"stationId":"PL_B_1_F_10"},{"lng":26.02947,"geohash":"sxfx866p4e","stationName":"Gara de Sud","lat":44.92569,"stationId":"PL_B_1_F_11"},{"lng":26.0342718361,"geohash":"sxfx83te6w","stationName":"Rulmenti Grei","lat":44.9209425423,"stationId":"PL_B_1_F_12"},{"lng":26.03397,"geohash":"sxfx82vq56","stationName":"Bariera Bucuresti","lat":44.91727,"stationId":"PL_B_1_F_13"},{"lng":26.02652,"geohash":"sxfx80xgjg","stationName":"Rafinaria Astra","lat":44.91539,"stationId":"PL_B_1_F_14"},{"lng":26.0229,"geohash":"sxfx80mkct","stationName":"Umerva","lat":44.91433,"stationId":"PL_B_1_F_15"},{"lng":26.01716,"geohash":"sxfx80115z","stationName":"COMAT","lat":44.91232,"stationId":"PL_B_1_F_16"}],"routeWayPoints":[],"routeWayPointsEncoded":"y`nqGkvm}CGFmCoDc@[YNGJnDzEj@z@Ff@@ZHLJFVIHS?Qx@_ApLu]|BuGPa@NQ\\[TEZ[Lg@DwBBKrDgL`@wAbCiHb@kBzSon@z[g`APYTo@zAyEf@uAD_@|@wCVm@dRej@dGyRzFqSXe@p@g@R[Hm@FuBHo@vWck@l@{@h@a@VINAPIPQPo@?uAH}ANw@dGiQlA}CjAwB`BiBpDoDVAfAk@ZIp@C|@UdAa@f@Md@UtP}DhFgA~OsDLVNDVENIPSJYzQ_EfAJ^ClD{@_@}CDW@q@s@sFQMWKWAu@BYE[UOYOg@Ci@Fo@Rs@Xe@PUTQb@S|DoArBc@pAKjMg@lIWvCMdHk@nBEb@BPHRGPjAf@bCvIjh@","routeName":"B_1_F"},"name":"Metro - Rafinaria Astra","lineNumber":"1","routeBackward":{"duration":"00:40","name":"Rafinaria Astra - Metro","moveDirection":"B","stations":[{"lng":26.01716,"geohash":"sxfx2pcpgf","stationName":"COMAT","lat":44.91208,"stationId":"PL_B_1_B_0"},{"lng":26.02384,"geohash":"sxfx80mvx2","stationName":"Umerva","lat":44.91443,"stationId":"PL_B_1_B_1"},{"lng":26.02666,"geohash":"sxfx828410","stationName":"Rafinaria Astra","lat":44.9152,"stationId":"PL_B_1_B_2"},{"lng":26.03497,"geohash":"sxfx83n44f","stationName":"Bariera Bucuresti","lat":44.91796,"stationId":"PL_B_1_B_3"},{"lng":26.0343678592,"geohash":"sxfx83txhe","stationName":"Rulmenti Grei","lat":44.9215692826,"stationId":"PL_B_1_B_4"},{"lng":26.02968,"geohash":"sxfx86d1x8","stationName":"Coreco Sud","lat":44.9261,"stationId":"PL_B_1_B_5"},{"lng":26.028068423,"geohash":"sxfx87349c","stationName":"13 Decembrie","lat":44.9303968578,"stationId":"PL_B_1_B_6"},{"lng":26.02702,"geohash":"sxfx87bm1d","stationName":"Ana Ipatescu","lat":44.93358,"stationId":"PL_B_1_B_7"},{"lng":26.02264,"geohash":"sxfx8jm177","stationName":"Palatul Culturii","lat":44.94118,"stationId":"PL_B_1_B_8"},{"lng":26.0199,"geohash":"sxfx8jepg9","stationName":"Hale Coreco","lat":44.94366,"stationId":"PL_B_1_B_9"},{"lng":26.01163,"geohash":"sxfrxymp4g","stationName":"Piata Mihai Viteazul","lat":44.94766,"stationId":"PL_B_1_B_10"},{"lng":26.0068811176,"geohash":"sxfrxy9xsk","stationName":"Magazinul Dacia","lat":44.9491280765,"stationId":"PL_B_1_B_11"},{"lng":25.99926,"geohash":"sxfrxxk1dx","stationName":"Restaurant Nord","lat":44.95223,"stationId":"PL_B_1_B_12"},{"lng":25.99496,"geohash":"sxfrxx8vw7","stationName":"Cablul Romanesc","lat":44.95427,"stationId":"PL_B_1_B_13"},{"lng":25.98828,"geohash":"sxfrz2hjdf","stationName":"Meteo","lat":44.95701,"stationId":"PL_B_1_B_14"},{"lng":25.98207,"geohash":"sxfrz0xt61","stationName":"Km 5","lat":44.95971,"stationId":"PL_B_1_B_15"},{"lng":25.9736,"geohash":"sxfrz137kx","stationName":"Shell","lat":44.96352,"stationId":"PL_B_1_B_16"},{"lng":25.97301,"geohash":"sxfrz18vnv","stationName":"Ploiesti Shopping City 1","lat":44.96518,"stationId":"PL_B_1_B_17"},{"lng":25.97136,"geohash":"sxfryczu0w","stationName":"Ploiesti Shopping City 2","lat":44.96639,"stationId":"PL_B_1_B_18"},{"lng":25.96215,"geohash":"sxfryf3j1g","stationName":"Metro","lat":44.96929,"stationId":"PL_B_1_B_19"}],"routeWayPoints":[],"routeWayPointsEncoded":"wncqGkiz}CSHgJoj@WgAi@aDHO@e@GOKIM?IDk@b@mBd@qGh@_^pAkBV_ATgDdAg@R]RSR_@l@Qf@Ip@Cz@DlAjAzK?v@Gj@@\\NV\\BhD{@S_B{A^oAR]^[b@_@Z_U~EwKfCqFhAuTfFk@@_Ch@oBXe@Tm@^OZsApA_EfEkAvBq@|AqF|OoD}CMXMPcA|CYd@q@d@YH]A_AJyECoBtMQ~@OnAcDhTOn@I|@aB~KSb@a@`@MTGTA\\J|@?ZEZiAfEaBlF}AtFoGvS_Qlh@QpA}@vCiAfAMFILiAfDC`@DhAGf@wp@voBs@|AgIzVe@`@a@Ri@Cm@_@m@y@i@i@b@r@~@pAJzAAR@h@ArAOn@{IzW}ExMYTUH]s@Ok@","routeName":"B_1_B"}},{"deviceType":"B","onlyOneRoute":false,"color":"8f4099","routeForward":{"duration":"00:16","name":"Gara de Vest - Gara de Sud","moveDirection":"F","stations":[{"lng":25.9953562019,"geohash":"sxfrxd3jxe","stationName":"Gara de Vest imbarcare","lat":44.9254306116,"stationId":"PL_B_2_F_0"},{"lng":25.9988006947,"geohash":"sxfrxdgsxg","stationName":"Aleea Vitioarei","lat":44.92800494,"stationId":"PL_B_2_F_1"},{"lng":26.0053340194,"geohash":"sxfrxg8s24","stationName":"Eroilor","lat":44.9320758502,"stationId":"PL_B_2_F_2"},{"lng":26.01652,"geohash":"sxfx8h0ssu","stationName":"Plaiesilor","lat":44.93488,"stationId":"PL_B_2_F_3"},{"lng":26.0246797202,"geohash":"sxfx8hwd6b","stationName":"Liceul Mihai Viteazu","lat":44.9372184796,"stationId":"PL_B_2_F_4"},{"lng":26.02678,"geohash":"sxfx87bhgu","stationName":"Ana Ipatescu","lat":44.93355,"stationId":"PL_B_2_F_5"},{"lng":26.0278323887,"geohash":"sxfx872fk2","stationName":"13 Decembrie","lat":44.9303520435,"stationId":"PL_B_2_F_6"},{"lng":26.02903,"geohash":"sxfx869b82","stationName":"BIG","lat":44.92593,"stationId":"PL_B_2_F_7"}],"routeWayPoints":[],"routeWayPointsEncoded":"koeqGget}C?C_Bq@c@K[d@eB{BQYi@iAcAwC}AiGgAaDuBmFmFaLgEaH]a@wBwBgAyAQi@y@eDsAmHqCgPqAmGmAkF]wGk@oH{@eHu@sDQcC[kJmAmKc@aBeDmEWQu@_@{@mAC_@?SN[f@Md@UtTgFrFkAzSyExLkCtAJlBc@","routeName":"B_2_F"},"name":"Gara de Vest - Gara de Sud","lineNumber":"2","routeBackward":{"duration":"00:16","name":"Gara de Sud - Gara de Vest","moveDirection":"B","stations":[{"lng":26.02968,"geohash":"sxfx86d1x8","stationName":"Coreco Sud","lat":44.9261,"stationId":"PL_B_2_B_0"},{"lng":26.028068423,"geohash":"sxfx87349c","stationName":"13 Decembrie","lat":44.9303968578,"stationId":"PL_B_2_B_1"},{"lng":26.02702,"geohash":"sxfx87bm1d","stationName":"Ana Ipatescu","lat":44.93358,"stationId":"PL_B_2_B_2"},{"lng":26.0245161054,"geohash":"sxfx8hy2xn","stationName":"Jurnalist Gabi Dobre","lat":44.9383223646,"stationId":"PL_B_2_B_3"},{"lng":26.01462,"geohash":"sxfrxupq09","stationName":"Panificatie","lat":44.93512,"stationId":"PL_B_2_B_4"},{"lng":26.00836,"geohash":"sxfrxgfdqw","stationName":"Eroilor","lat":44.93313,"stationId":"PL_B_2_B_5"},{"lng":26.00317,"geohash":"sxfrxeqftz","stationName":"Domnisori","lat":44.93043,"stationId":"PL_B_2_B_6"},{"lng":25.99644,"geohash":"sxfrxddp8b","stationName":"Spitalul CFR","lat":44.92713,"stationId":"PL_B_2_B_7"},{"lng":25.99476,"geohash":"sxfrxd2gcy","stationName":"Gara de Vest debarcare","lat":44.92515,"stationId":"PL_B_2_B_8"}],"routeWayPoints":[],"routeWayPointsEncoded":"kseqGi|z}C?DgAVKCWFIJIRY^_@Z_U~EcQ|DeE|@uP|Dk@@oAZoB\\EH?Xv@nCJt@C\\m@^SDmAB_@FFnGDVVXhBfEJ?|BrF|EdKn@zA|IhYzAnGpAlGfBrK|B`MP|ATtCFPNLx@L`@LlCrCfE`HlF`LtBlFfA`D|AhGbAvCh@hAV`@~ArBb@HvCdD\\y@","routeName":"B_2_B"}},{"deviceType":"B","onlyOneRoute":false,"color":"8f4099","routeForward":{"duration":"00:26","name":"Gara de Vest - Hipodrom","moveDirection":"F","stations":[{"lng":25.9953562019,"geohash":"sxfrxd3jxe","stationName":"Gara de Vest imbarcare","lat":44.9254306116,"stationId":"PL_B_2B_F_0"},{"lng":25.9988006947,"geohash":"sxfrxdgsxg","stationName":"Aleea Vitioarei","lat":44.92800494,"stationId":"PL_B_2B_F_1"},{"lng":26.0053340194,"geohash":"sxfrxg8s24","stationName":"Eroilor","lat":44.9320758502,"stationId":"PL_B_2B_F_2"},{"lng":26.01652,"geohash":"sxfx8h0ssu","stationName":"Plaiesilor","lat":44.93488,"stationId":"PL_B_2B_F_3"},{"lng":26.0246797202,"geohash":"sxfx8hwd6b","stationName":"Liceul Mihai Viteazu","lat":44.9372184796,"stationId":"PL_B_2B_F_4"},{"lng":26.02678,"geohash":"sxfx87bhgu","stationName":"Ana Ipatescu","lat":44.93355,"stationId":"PL_B_2B_F_5"},{"lng":26.0278323887,"geohash":"sxfx872fk2","stationName":"13 Decembrie","lat":44.9303520435,"stationId":"PL_B_2B_F_6"},{"lng":26.02947,"geohash":"sxfx866p4e","stationName":"Gara de Sud","lat":44.92569,"stationId":"PL_B_2B_F_7"},{"lng":26.0342718361,"geohash":"sxfx83te6w","stationName":"Rulmenti Grei","lat":44.9209425423,"stationId":"PL_B_2B_F_8"},{"lng":26.03497,"geohash":"sxfx82y54u","stationName":"Bariera Bucuresti","lat":44.91677,"stationId":"PL_B_2B_F_9"},{"lng":26.036,"geohash":"sxfx82qg4y","stationName":"UPG","lat":44.91403,"stationId":"PL_B_2B_F_10"},{"lng":26.03772,"geohash":"sxfx2x8p4f","stationName":"Hipodrom","lat":44.91058,"stationId":"PL_B_2B_F_11"}],"routeWayPoints":[],"routeWayPointsEncoded":"_oeqGmet}CCDgBu@c@K[d@eB{BQYi@iAcAwCwAuFmAuDuBmFcBiDiCwFgEaH]a@wBwBgAyAQi@c@cBiAuFqDaTqAmGmAkFi@eJ[eE_AaIu@sDSoCY_JmAmKc@aBeDmEWQu@_@GIs@cACs@N[f@Md@U|S_F`Ce@bSsEzQ_EtAJ~D_AQ{AqCn@MM[k@mAmLCeA@a@Fo@Rs@j@{@TQb@S|DoArBc@pAKzRq@hI]pGi@nBEb@BJFL?JEHOpCsAvDmAz^mJ","routeName":"B_2B_F"},"name":"Gara de Vest - Hipodrom","lineNumber":"2B","routeBackward":{"duration":"00:26","name":"Hipodrom - Gara de Vest","moveDirection":"B","stations":[{"lng":26.03732,"geohash":"sxfx2rzf3e","stationName":"Hipodrom","lat":44.91114,"stationId":"PL_B_2B_B_0"},{"lng":26.03604,"geohash":"sxfx82qyes","stationName":"UPG","lat":44.91462,"stationId":"PL_B_2B_B_1"},{"lng":26.03497,"geohash":"sxfx83n44f","stationName":"Bariera Bucuresti","lat":44.91796,"stationId":"PL_B_2B_B_2"},{"lng":26.0343678592,"geohash":"sxfx83txhe","stationName":"Rulmenti Grei","lat":44.9215692826,"stationId":"PL_B_2B_B_3"},{"lng":26.02968,"geohash":"sxfx86d1x8","stationName":"Coreco Sud","lat":44.9261,"stationId":"PL_B_2B_B_4"},{"lng":26.028068423,"geohash":"sxfx87349c","stationName":"13 Decembrie","lat":44.9303968578,"stationId":"PL_B_2B_B_5"},{"lng":26.02702,"geohash":"sxfx87bm1d","stationName":"Ana Ipatescu","lat":44.93358,"stationId":"PL_B_2B_B_6"},{"lng":26.0245161054,"geohash":"sxfx8hy2xn","stationName":"Jurnalist Gabi Dobre","lat":44.9383223646,"stationId":"PL_B_2B_B_7"},{"lng":26.01462,"geohash":"sxfrxupq09","stationName":"Panificatie","lat":44.93512,"stationId":"PL_B_2B_B_8"},{"lng":26.00836,"geohash":"sxfrxgfdqw","stationName":"Eroilor","lat":44.93313,"stationId":"PL_B_2B_B_9"},{"lng":26.00317,"geohash":"sxfrxeqftz","stationName":"Domnisori","lat":44.93043,"stationId":"PL_B_2B_B_10"},{"lng":25.99644,"geohash":"sxfrxddp8b","stationName":"Spitalul CFR","lat":44.92713,"stationId":"PL_B_2B_B_11"},{"lng":25.99476,"geohash":"sxfrxd2gcy","stationName":"Gara de Vest debarcare","lat":44.92515,"stationId":"PL_B_2B_B_12"}],"routeWayPoints":[],"routeWayPointsEncoded":"utbqGgl|}C?Fk\\pIwDlA_BZ]BYAKIM?u@h@mBd@qGh@kAFs[hAkBV_ATgDdAg@R]RSRc@r@Qn@Gn@AbAHnAfA`K?h@Eb@CFAb@L\\JFJ@rD{@_@}CmDv@@VAb@M`@Y^_@Z_U~EwKfCqFhAuTfFk@@oAZoB\\EH?Xv@nCJt@C\\m@^i@FgABODF~FB\\FPPPhBfEJ?~BvF`GbMdBnF`GrRTAU@zAnGpAlGnArHtC`Pf@rFNZzAXvBvB\\`@fE`HlF`LtBlFfA`D|AhGxA`Ed@x@dBzBb@HvCdDb@eA","routeName":"B_2B_B"}},{"deviceType":"B","onlyOneRoute":false,"color":"8f4099","routeForward":{"duration":"00:19","name":"Gara de Nord - Gara de Vest","moveDirection":"F","stations":[{"lng":26.02666,"geohash":"sxfx8r2p91","stationName":"Gara de Nord","lat":44.95323,"stationId":"PL_B_4_F_0"},{"lng":26.02248,"geohash":"sxfx8psfx8","stationName":"Panificatie","lat":44.95374,"stationId":"PL_B_4_F_1"},{"lng":26.02373,"geohash":"sxfx8nvgsg","stationName":"Spital Boldescu","lat":44.94981,"stationId":"PL_B_4_F_2"},{"lng":26.01969,"geohash":"sxfx8jdzn9","stationName":"Hale Catedrala","lat":44.94353,"stationId":"PL_B_4_F_3"},{"lng":26.01565,"geohash":"sxfx8h2p8w","stationName":"Tudor Vladimirescu","lat":44.93678,"stationId":"PL_B_4_F_4"},{"lng":26.01052,"geohash":"sxfrxuhrc1","stationName":"Popa Farcas","lat":44.93542,"stationId":"PL_B_4_F_5"},{"lng":26.006,"geohash":"sxfrxgbfrw","stationName":"Torcatori","lat":44.93313,"stationId":"PL_B_4_F_6"},{"lng":26.00317,"geohash":"sxfrxeqftz","stationName":"Domnisori","lat":44.93043,"stationId":"PL_B_4_F_7"},{"lng":25.99644,"geohash":"sxfrxddp8b","stationName":"Spitalul CFR","lat":44.92713,"stationId":"PL_B_4_F_8"},{"lng":25.99476,"geohash":"sxfrxd2gcy","stationName":"Gara de Vest debarcare","lat":44.92515,"stationId":"PL_B_4_F_9"}],"routeWayPoints":[],"routeWayPointsEncoded":"o|jqGyiz}CBH~A|AaHnR?VFTN@PHjB~AnCs@vGwAt@WbCyA`@_@F@LSbA]vF[rAO`BWbMyAHjDHrIAjCqAlIS^[tBbHD`@HN?VSZc@dAiDl@sAnD|C{@|B_@d@s@r@]RMLKPIn@?RD^HT^ZPBVETOJQHWB]Ek@IUMQOKQES@UJMLIREVAj@F^JRNNNFR@j@Kj@J^Nx@l@zArAd@p@Vh@v@~BzGcJRHHGDUVAlDL|Cn@j@R~@j@h@b@V`@J^`AxKZdBZtApBtHP~@z@hJ\\~ChAvEb@dA~ElI|DoAP|ATtCFPNLx@L`@LlCrCfE`HlF`LtBlFfA`D|AhGn@jBh@tAR`@vBrCb@HvCdDZs@","routeName":"B_4_F"},"name":"Gara de Nord - Gara de Vest","lineNumber":"4","routeBackward":{"duration":"00:19","name":"Gara de Vest - Gara de Nord","moveDirection":"B","stations":[{"lng":25.9953562019,"geohash":"sxfrxd3jxe","stationName":"Gara de Vest imbarcare","lat":44.9254306116,"stationId":"PL_B_4_B_0"},{"lng":25.9988006947,"geohash":"sxfrxdgsxg","stationName":"Aleea Vitioarei","lat":44.92800494,"stationId":"PL_B_4_B_1"},{"lng":26.00622,"geohash":"sxfrxgc4ku","stationName":"Torcatori","lat":44.93312,"stationId":"PL_B_4_B_2"},{"lng":26.00976,"geohash":"sxfrxu5wxm","stationName":"Popa Farcas","lat":44.93523,"stationId":"PL_B_4_B_3"},{"lng":26.01583,"geohash":"sxfx8h2pkc","stationName":"Tudor Vladimirescu","lat":44.93671,"stationId":"PL_B_4_B_4"},{"lng":26.0199,"geohash":"sxfx8jepg9","stationName":"Hale Coreco","lat":44.94366,"stationId":"PL_B_4_B_5"},{"lng":26.02404,"geohash":"sxfx8ny4k1","stationName":"Spital Boldescu","lat":44.94958,"stationId":"PL_B_4_B_6"},{"lng":26.0233,"geohash":"sxfx8ptedf","stationName":"Panificatie","lat":44.95392,"stationId":"PL_B_4_B_7"},{"lng":26.02666,"geohash":"sxfx8r2p91","stationName":"Gara de Nord","lat":44.95323,"stationId":"PL_B_4_B_8"}],"routeWayPoints":[],"routeWayPointsEncoded":"goeqGket}CcBq@c@K[d@eB{BQYi@iAcAwC}AiGgAaDuBmFmFaLgEaH]a@wBwBgAyAQi@y@eD}DnA_FmISe@O_@iAwEa@wDw@qIQ_AmCkKe@yCs@sIJ}@ESwAe@_Ak@k@S_B]}@QmDMW@COIII?IFu@YyA_AeBsA}CzIeCuBs@eAM_@Eu@BsADk@Nw@n@kBoD}Cg@`Aw@fCYd@q@d@YH]A_AJ{AAOO[e@Um@CS`@kCp@yDPu@`@oAAKGM_@WMUCg@S}LaLpAmBZyAP_H^cA@IP@NHHa@^kBhAmAf@wGvAoCr@oBaB_@MEW?Q`HoR_B}AA[GGI@AB","routeName":"B_4_B"}},{"deviceType":"B","onlyOneRoute":false,"color":"8f4099","routeForward":{"duration":"00:11","name":"Vega - Hale Catedrala","moveDirection":"F","stations":[{"lng":26.02161,"geohash":"sxfxb0k2ek","stationName":"Vega","lat":44.95754,"stationId":"PL_B_4B_F_0"},{"lng":26.02248,"geohash":"sxfx8psfx8","stationName":"Panificatie","lat":44.95374,"stationId":"PL_B_4B_F_1"},{"lng":26.02373,"geohash":"sxfx8nvgsg","stationName":"Spital Boldescu","lat":44.94981,"stationId":"PL_B_4B_F_2"},{"lng":26.02429,"geohash":"sxfx8nq79c","stationName":"Romana","lat":44.94705,"stationId":"PL_B_4B_F_3"},{"lng":26.01969,"geohash":"sxfx8jdzn9","stationName":"Hale Catedrala","lat":44.94353,"stationId":"PL_B_4B_F_4"}],"routeWayPoints":[],"routeWayPointsEncoded":"axkqGijy}CDUjAO`Io@|@OzCaA`@S^e@NGPBNJfBzAnCs@vGwAt@WbCyA`@_@F@LSbA]tHe@pAUhNaBRrMAjDGr@_A|FQv@KN[tBbHD`@HN?VSZc@r@cC","routeName":"B_4B_F"},"name":"Vega - Hale Catedrala (Cimitir)","lineNumber":"4B","routeBackward":{"duration":"00:11","name":"Vega - Hale Catedrala (via Gara de Nord)","moveDirection":"B","stations":[{"lng":26.02161,"geohash":"sxfxb0k2ek","stationName":"Vega","lat":44.95754,"stationId":"PL_B_4B_B_0"},{"lng":26.0233,"geohash":"sxfx8ptedf","stationName":"Panificatie","lat":44.95392,"stationId":"PL_B_4B_B_1"},{"lng":26.02666,"geohash":"sxfx8r2p91","stationName":"Gara de Nord","lat":44.95323,"stationId":"PL_B_4B_B_2"},{"lng":26.02373,"geohash":"sxfx8nvgsg","stationName":"Spital Boldescu","lat":44.94981,"stationId":"PL_B_4B_B_3"},{"lng":26.02429,"geohash":"sxfx8nq79c","stationName":"Romana","lat":44.94705,"stationId":"PL_B_4B_B_4"},{"lng":26.01969,"geohash":"sxfx8jdzn9","stationName":"Hale Catedrala","lat":44.94353,"stationId":"PL_B_4B_B_5"}],"routeWayPoints":[],"routeWayPointsEncoded":"swkqGmjy}CDMtGu@V?x@GrBc@tBm@`@Qj@g@@g@hH}R_B}AvInIpAvA|BnBb@N@TFHF@JIvAi@x@IxCMxBObIeAlEe@TlPG`CkBhKAn@^F|ECx@JREVKX]d@sA","routeName":"B_4B_B"}},{"deviceType":"B","onlyOneRoute":false,"color":"8f4099","routeForward":{"duration":"00:19","name":"Spitalul Judetean - Cartier Mihai Bravu","moveDirection":"F","stations":[{"lng":26.007071018,"geohash":"sxfrzc3c0t","stationName":"Spitalul Judetean","lat":44.9631213338,"stationId":"PL_B_5_F_0"},{"lng":26.0099,"geohash":"sxfrzbgb6w","stationName":"Cramele Halewood","lat":44.96025,"stationId":"PL_B_5_F_1"},{"lng":26.01259,"geohash":"sxfrzbmccm","stationName":"Castor","lat":44.95776,"stationId":"PL_B_5_F_2"},{"lng":26.01516,"geohash":"sxfrxzzet1","stationName":"Garaj RATP","lat":44.95529,"stationId":"PL_B_5_F_3"},{"lng":26.01801,"geohash":"sxfx8p39p8","stationName":"Radu de la Afumati","lat":44.95211,"stationId":"PL_B_5_F_4"},{"lng":26.01969,"geohash":"sxfx8jdzn9","stationName":"Hale Catedrala","lat":44.94353,"stationId":"PL_B_5_F_5"},{"lng":26.03026,"geohash":"sxfx8m68t4","stationName":"Postei","lat":44.94105,"stationId":"PL_B_5_F_6"},{"lng":26.03642,"geohash":"sxfx8mr4u9","stationName":"Tabacarie","lat":44.94143,"stationId":"PL_B_5_F_7"},{"lng":26.04133,"geohash":"sxfx8tddqv","stationName":"Razboieni","lat":44.94274,"stationId":"PL_B_5_F_8"},{"lng":26.04466,"geohash":"sxfx8ttnht","stationName":"Neajlov","lat":44.94338,"stationId":"PL_B_5_F_9"},{"lng":26.04604,"geohash":"sxfx8tnnhw","stationName":"Mihai Bravu","lat":44.94064,"stationId":"PL_B_5_F_10"}],"routeWayPoints":[],"routeWayPointsEncoded":"wzlqGunv}CGKxEgFhV{VB]dGuGtQ{QnC{CpAeA|LwEdBk@|Aq@REdJn@tHDnAExEBhA@`@HN?VSZc@hAuD`@u@Vs@`DmJf@}A@MCMwGaNxAqGRo@nBmCx@aAjAs@|BaHHi@@i@Cs@aCwRh@mIP_FkAwGQ_BWcE{@gDy@uCk@iCgAgI[{ECmC?mDbCg@TDTLbA`@l@NrBHlA@PEr@}@","routeName":"B_5_F"},"name":"Spitalul Judetean - Cartier Mihai Bravu","lineNumber":"5","routeBackward":{"duration":"00:19","name":"Cartier Mihai Bravu - Spitalul Judetean","moveDirection":"B","stations":[{"lng":26.04654,"geohash":"sxfx8tns82","stationName":"Mihai Bravu","lat":44.94035,"stationId":"PL_B_5_B_0"},{"lng":26.04404,"geohash":"sxfx8tswqh","stationName":"Neajlov","lat":44.94342,"stationId":"PL_B_5_B_1"},{"lng":26.04067,"geohash":"sxfx8td1ze","stationName":"Tanin","lat":44.94264,"stationId":"PL_B_5_B_2"},{"lng":26.0368242262,"geohash":"sxfx8mrkjv","stationName":"Stadion","lat":44.9416631297,"stationId":"PL_B_5_B_3"},{"lng":26.02963,"geohash":"sxfx8m64qq","stationName":"Postei","lat":44.94137,"stationId":"PL_B_5_B_4"},{"lng":26.0199,"geohash":"sxfx8jepg9","stationName":"Hale Coreco","lat":44.94366,"stationId":"PL_B_5_B_5"},{"lng":26.01861,"geohash":"sxfx8p45me","stationName":"Radu de la Afumati","lat":44.95114,"stationId":"PL_B_5_B_6"},{"lng":26.0163750647,"geohash":"sxfx8p8w13","stationName":"Garaj RATP","lat":44.9543477608,"stationId":"PL_B_5_B_7"},{"lng":26.0143795012,"geohash":"sxfrzbp1du","stationName":"Gageni nr. 88","lat":44.9563369548,"stationId":"PL_B_5_B_8"},{"lng":26.01286,"geohash":"sxfrzbmfpx","stationName":"Castor","lat":44.95781,"stationId":"PL_B_5_B_9"},{"lng":26.01031,"geohash":"sxfrzbu0hh","stationName":"Cramele Halewood","lat":44.9602,"stationId":"PL_B_5_B_10"},{"lng":26.00766,"geohash":"sxfrzc4pq7","stationName":"Spitalul Judetean","lat":44.96281,"stationId":"PL_B_5_B_11"}],"routeWayPoints":[],"routeWayPointsEncoded":"ukhqGce~}CQ_@{AvB[^QDmAAsBIm@OaA_@WOUEcCf@BzHZzEfAfIj@hCbBbGPx@RpDTpBjAvGK`Dk@vIA`A|BzQDr@K`BuBnGQFi@Zk@d@uCvDMZwA|FKn@BJvG`NBLALg@|AaDlJWr@U\\aAxCYd@q@d@YH]A_AJyECoADuHEeJo@SD}Ap@eBj@}LvEqAdAoCzCaQfQaDfDeBnBQPOFUPsYfZ","routeName":"B_5_B"}},{"deviceType":"B","onlyOneRoute":false,"color":"8f4099","routeForward":{"duration":"00:31","name":"Bariera Rudului - Fabrica Dorobantul","moveDirection":"F","stations":[{"lng":26.01138,"geohash":"sxfrxcubm4","stationName":"Bariera Rudului","lat":44.92178,"stationId":"PL_B_7_F_0"},{"lng":26.01398,"geohash":"sxfrxfnb1s","stationName":"Eroilor","lat":44.92312,"stationId":"PL_B_7_F_1"},{"lng":26.0154105423,"geohash":"sxfrxfrv54","stationName":"Stindardului","lat":44.9253409752,"stationId":"PL_B_7_F_2"},{"lng":26.01707,"geohash":"sxfx84c51t","stationName":"Jupiter","lat":44.92776,"stationId":"PL_B_7_F_3"},{"lng":26.0192621944,"geohash":"sxfx856wuv","stationName":"Spitalul Schuller","lat":44.9311518598,"stationId":"PL_B_7_F_4"},{"lng":26.0209788082,"geohash":"sxfx8h5ysu","stationName":"Liceul Economic","lat":44.9352229267,"stationId":"PL_B_7_F_5"},{"lng":26.0215125678,"geohash":"sxfx8huq11","stationName":"Tache Ionescu","lat":44.9392424424,"stationId":"PL_B_7_F_6"},{"lng":26.01969,"geohash":"sxfx8jdzn9","stationName":"Hale Catedrala","lat":44.94353,"stationId":"PL_B_7_F_7"},{"lng":26.02952,"geohash":"sxfx8kfneb","stationName":"Muzeul Petrolului","lat":44.93932,"stationId":"PL_B_7_F_8"},{"lng":26.03792,"geohash":"sxfx8s24zw","stationName":"Udriste Nasturel","lat":44.93596,"stationId":"PL_B_7_F_9"},{"lng":26.04455,"geohash":"sxfx8st564","stationName":"Gradinari","lat":44.9374,"stationId":"PL_B_7_F_10"},{"lng":26.0469211338,"geohash":"sxfx8snf3k","stationName":"Pictor Iscovescu","lat":44.9344938016,"stationId":"PL_B_7_F_11"},{"lng":26.04967,"geohash":"sxfx8gbu1k","stationName":"Dorobantul","lat":44.93342,"stationId":"PL_B_7_F_12"},{"lng":26.05364,"geohash":"sxfx8gedvb","stationName":"Dorobantul imbarcare \/ debarcare","lat":44.93181,"stationId":"PL_B_7_F_13"}],"routeWayPoints":[],"routeWayPointsEncoded":"}wdqGcjw}CC@KMk@qCcA}AeF{Ig@c@qEqBeAYwDoCoAs@iHeDiBgA{FyD{CkB_JsD_JgDeI_AiFiAuAKeC\\}AFkB^O@k@IAm@Iw@Mg@gEoKm@t@}AxCo@|AqGfRU\\m@r@[X]RS@]GiA}@A_@B[v@oC`@iAT]xEmNH_@CMwGaNxAqGRo@PY|AsBx@aAjAs@`@C`Gl@rAHvCA?aCIiDHg@pCmD`@mAXkA\\_DNs@vBuDRcAxAaEHa@AeBLsAlDyOQgBUcM?gAJkArBqNrAmFfD{Kj@wBrA{GxBaIv@}BfByE^y@","routeName":"B_7_F"},"name":"Bariera Rudului - Fabrica Dorobantul","lineNumber":"7","routeBackward":{"duration":"00:31","name":"Fabrica Dorobantul - Bariera Rudului","moveDirection":"B","stations":[{"lng":26.05364,"geohash":"sxfx8gedvb","stationName":"Dorobantul imbarcare \/ debarcare","lat":44.93181,"stationId":"PL_B_7_B_0"},{"lng":26.05053,"geohash":"sxfx8gc7mq","stationName":"Dorobantul","lat":44.9333,"stationId":"PL_B_7_B_1"},{"lng":26.04414,"geohash":"sxfx8ssg22","stationName":"Biserica","lat":44.93739,"stationId":"PL_B_7_B_2"},{"lng":26.03706,"geohash":"sxfx8krt5k","stationName":"Scoala 9","lat":44.93634,"stationId":"PL_B_7_B_3"},{"lng":26.02996,"geohash":"sxfx8m46np","stationName":"Armoniei","lat":44.93996,"stationId":"PL_B_7_B_4"},{"lng":26.0199,"geohash":"sxfx8jepg9","stationName":"Hale Coreco","lat":44.94366,"stationId":"PL_B_7_B_5"},{"lng":26.0216965673,"geohash":"sxfx8hurj3","stationName":"Tache Ionescu","lat":44.9394125583,"stationId":"PL_B_7_B_6"},{"lng":26.02102,"geohash":"sxfx8h7gvx","stationName":"Liceul Economic","lat":44.93614,"stationId":"PL_B_7_B_7"},{"lng":26.0197235344,"geohash":"sxfx85dvrx","stationName":"Spitalul Schuller","lat":44.9322759892,"stationId":"PL_B_7_B_8"},{"lng":26.01722,"geohash":"sxfx84cnjh","stationName":"Jupiter","lat":44.92827,"stationId":"PL_B_7_B_9"},{"lng":26.0157324073,"geohash":"sxfx842pf9","stationName":"Facultativa","lat":44.925805108,"stationId":"PL_B_7_B_10"},{"lng":26.01429,"geohash":"sxfrxfp42g","stationName":"Eroilor","lat":44.9235,"stationId":"PL_B_7_B_11"},{"lng":26.01138,"geohash":"sxfrxcubm4","stationName":"Bariera Rudului","lat":44.92178,"stationId":"PL_B_7_B_12"}],"routeWayPoints":[],"routeWayPointsEncoded":"swfqGcq_~CAC[p@gBxEw@|ByB`IsAzGk@vBgDzKsAlFsBpNKjA?fATbMPfBgDfOSdB@dBI`@yA`ESbAwBtDw@BaCW]Lo@d@k@b@_@d@W|@a@rBErAJbEVtCDzCmAC{AOwCa@y@GS?c@Nm@^k@h@_C|CQZM\\yAjGAXtGvMFTATwEjN[j@cA|C[lA?^BVFXXXd@r@L`@Bf@FVJR^RX?PIPQPo@BgCDk@Nw@`HiSp@}AjAwBl@u@lAxCfC|GJbA?`@n@z@D@LEDUEQKGRApA[zAGpC_@tAJhFhAnEj@tBR~IfD~IrDzCjBzFxDhBfAdF|BrCzAvDnCdAXxDbBn@^`@d@rEfIbA|Aj@pCX\\","routeName":"B_7_B"}},{"deviceType":"B","onlyOneRoute":false,"color":"8f4099","routeForward":{"duration":"00:10","name":"Hale Catedrala - Cimitir Bolovani","moveDirection":"F","stations":[{"lng":26.01969,"geohash":"sxfx8jdzn9","stationName":"Hale Catedrala","lat":44.94353,"stationId":"PL_B_8_F_0"},{"lng":26.0216965673,"geohash":"sxfx8hurj3","stationName":"Tache Ionescu","lat":44.9394125583,"stationId":"PL_B_8_F_1"},{"lng":26.01462,"geohash":"sxfrxupq09","stationName":"Panificatie","lat":44.93512,"stationId":"PL_B_8_F_2"},{"lng":26.01495,"geohash":"sxfrxgz90r","stationName":"Sala Sporturilor","lat":44.93292,"stationId":"PL_B_8_F_3"},{"lng":26.01136,"geohash":"sxfrxfsvss","stationName":"Cimitir Bolovani","lat":44.92681,"stationId":"PL_B_8_F_4"}],"routeWayPoints":[],"routeWayPointsEncoded":"e`iqGo~x}Cv@eCnCdCPFJAFEfEwLjA{CbB{CN[DS@PzDrJL^d@pBZx@JJD@HCHO@OJa@bBYhCnGbAvBr@rAbCpF|CfJtCjJd@UWcEdC|@hAT~A}@r@YvA{@vDsBdAg@tHjDhAj@nBtFjEtMj@xAfBg@d@Q","routeName":"B_8_F"},"name":"Hale Catedrala - Cimitir Bolovani","lineNumber":"8","routeBackward":{"duration":"00:10","name":"Cimitir Bolovani - Hale Catedrala","moveDirection":"B","stations":[{"lng":26.01136,"geohash":"sxfrxfsvss","stationName":"Cimitir Bolovani","lat":44.92681,"stationId":"PL_B_8_B_0"},{"lng":26.01582,"geohash":"sxfx85b1h9","stationName":"Sala Sporturilor","lat":44.93289,"stationId":"PL_B_8_B_1"},{"lng":26.01652,"geohash":"sxfx8h0ssu","stationName":"Plaiesilor","lat":44.93488,"stationId":"PL_B_8_B_2"},{"lng":26.0215125678,"geohash":"sxfx8huq11","stationName":"Tache Ionescu","lat":44.9392424424,"stationId":"PL_B_8_B_3"},{"lng":26.01969,"geohash":"sxfx8jdzn9","stationName":"Hale Catedrala","lat":44.94353,"stationId":"PL_B_8_B_4"}],"routeWayPoints":[],"routeWayPointsEncoded":"eweqGajw}Ck@RgBf@k@yAkEuMoBuFiAk@uHkDeAf@wDrBkAc@k@MwDm@sBOo@@aAqI_A_Ga@yKiB[eCo@uA?oE^yAVYJ[ESOIO[aBmA_DcC}FMHkAlBg@bAiArC_FjNi@bBOXw@`A[Bi@JQ?m@YSQGk@Fa@^gA","routeName":"B_8_B"}},{"deviceType":"B","onlyOneRoute":false,"color":"8f4099","routeForward":{"duration":"00:31","name":"Auchan - Bariera Unirii","moveDirection":"F","stations":[{"lng":25.96223,"geohash":"sxfrwvcj7f","stationName":"Auchan","lat":44.94461,"stationId":"PL_B_22_F_0"},{"lng":25.97696,"geohash":"sxfrxj7f5p","stationName":"Selgros","lat":44.94133,"stationId":"PL_B_22_F_1"},{"lng":25.98124,"geohash":"sxfrxhyung","stationName":"Pod Inalt","lat":44.93891,"stationId":"PL_B_22_F_2"},{"lng":25.98458,"geohash":"sxfrxkc6hd","stationName":"Eremia Grigorescu","lat":44.93856,"stationId":"PL_B_22_F_3"},{"lng":25.98831,"geohash":"sxfrxku05x","stationName":"Biserica Inaltarea Domnului","lat":44.93824,"stationId":"PL_B_22_F_4"},{"lng":25.99574,"geohash":"sxfrxs9t0s","stationName":"Enachita Vacarescu","lat":44.93771,"stationId":"PL_B_22_F_5"},{"lng":26.00017,"geohash":"sxfrxsssxg","stationName":"Zimbrului","lat":44.93762,"stationId":"PL_B_22_F_6"},{"lng":26.00617,"geohash":"sxfrxu9j79","stationName":"Popa Farcas","lat":44.93774,"stationId":"PL_B_22_F_7"},{"lng":26.01231,"geohash":"sxfrxuv9dc","stationName":"Logofat Tautu","lat":44.93847,"stationId":"PL_B_22_F_8"},{"lng":26.0215125678,"geohash":"sxfx8huq11","stationName":"Tache Ionescu","lat":44.9392424424,"stationId":"PL_B_22_F_9"},{"lng":26.01969,"geohash":"sxfx8jdzn9","stationName":"Hale Catedrala","lat":44.94353,"stationId":"PL_B_22_F_10"},{"lng":26.02952,"geohash":"sxfx8kfneb","stationName":"Muzeul Petrolului","lat":44.93932,"stationId":"PL_B_22_F_11"},{"lng":26.03792,"geohash":"sxfx8s24zw","stationName":"Udriste Nasturel","lat":44.93596,"stationId":"PL_B_22_F_12"},{"lng":26.04172,"geohash":"sxfx8eg4bj","stationName":"Izvoare","lat":44.93321,"stationId":"PL_B_22_F_13"},{"lng":26.04427,"geohash":"sxfx8ehc77","stationName":"Bariera Unirii","lat":44.92882,"stationId":"PL_B_22_F_14"}],"routeWayPoints":[],"routeWayPointsEncoded":"ciiqGyxm}CCAEb@j@LlDXl@@PCLOf@aAH]@[a@yA?u@TU^Ar@VJ@LEHKxJySHDZEFIBKj@NRANONWTi@Li@Fo@^yMMkGXsHr@cJf@kKJsIDkAC[d@kMFoDh@wGdB_f@DmAKk@@o@`Bai@G}k@GgB?}ACy@oBuXO}CIaAEyIFeLCcBIuBCeHOsLM_BMw@IiAGOc@C]G?a@KeAgC{GmAyCm@t@kAvBq@|A_H`S_@p@mAlAUJ_@EWIaA{@@q@x@uC`@iAT]fA}CxCaJ@MCMwGaN|A}GTm@`C_Dd@i@fAo@`@C`Gl@rAHvCA?aCIiDHg@pCmD`@mAT{@L{@RsBNs@vBuDRcAxAaEHa@AeBLsAlDyOjCqBJMHSvEcHj@iAbA}Ar@oAhA{@bEwB^WfDgBJ?`Ae@bAYhBo@~Bc@","routeName":"B_22_F"},"name":"Auchan - Bariera Unirii","lineNumber":"22","routeBackward":{"duration":"00:31","name":"Bariera Unirii - Auchan","moveDirection":"B","stations":[{"lng":26.04427,"geohash":"sxfx8ehc77","stationName":"Bariera Unirii","lat":44.92882,"stationId":"PL_B_22_B_0"},{"lng":26.03896,"geohash":"sxfx8e2vrw","stationName":"Upetrom","lat":44.9309,"stationId":"PL_B_22_B_1"},{"lng":26.03478,"geohash":"sxfx8kjbn7","stationName":"Armasi","lat":44.9341,"stationId":"PL_B_22_B_2"},{"lng":26.03706,"geohash":"sxfx8krt5k","stationName":"Scoala 9","lat":44.93634,"stationId":"PL_B_22_B_3"},{"lng":26.02996,"geohash":"sxfx8m46np","stationName":"Armoniei","lat":44.93996,"stationId":"PL_B_22_B_4"},{"lng":26.0199,"geohash":"sxfx8jepg9","stationName":"Hale Coreco","lat":44.94366,"stationId":"PL_B_22_B_5"},{"lng":26.01237,"geohash":"sxfrxuvehn","stationName":"Logofat Tautu","lat":44.93875,"stationId":"PL_B_22_B_6"},{"lng":26.00699,"geohash":"sxfrxu9wyy","stationName":"Popa Farcas","lat":44.93802,"stationId":"PL_B_22_B_7"},{"lng":26.00204,"geohash":"sxfrxswjg6","stationName":"Zimbrului","lat":44.93783,"stationId":"PL_B_22_B_8"},{"lng":25.99644,"geohash":"sxfrxsdjby","stationName":"Enachita Vacarescu","lat":44.93785,"stationId":"PL_B_22_B_9"},{"lng":25.99122,"geohash":"sxfrxky0r2","stationName":"Liceul de Constructii","lat":44.93825,"stationId":"PL_B_22_B_10"},{"lng":25.98893,"geohash":"sxfrxku93b","stationName":"Biserica Inaltarea Domnului","lat":44.93842,"stationId":"PL_B_22_B_11"},{"lng":25.98138,"geohash":"sxfrxhzhf4","stationName":"Pod Inalt","lat":44.93903,"stationId":"PL_B_22_B_12"},{"lng":25.97696,"geohash":"sxfrxj7f5p","stationName":"Selgros","lat":44.94133,"stationId":"PL_B_22_B_13"},{"lng":25.96223,"geohash":"sxfrwvcj7f","stationName":"Auchan","lat":44.94461,"stationId":"PL_B_22_B_14"}],"routeWayPoints":[],"routeWayPointsEncoded":"ucfqGgx}}C?CZGHfEClBItBWl@_HbMs@dAyQ~Se@p@e@|@Wl@Mj@YAeA_DW}AU{BOwBi@eJU`@kCpBmDxOMrA@dBI`@yA`ESbAwBtDw@BaCW]LMHmA~@_@d@W|@a@rBCf@Aj@JbEDh@uAP{@rBCC?DQ?mA|@KRmBOQBc@Ra@Va@\\uCvDMZwA|FKn@BJpGrMFTATwEjNg@`Aw@dCYjAC^BZHTFL\\\\Zd@HTDr@FVJR^RX?XKP@j@L\\PlCzBd@p@Vh@v@~BzGcJRHjBnOhAlM^`FNl@NzCtBxYLrFBpPAlHFhRCjB_Bdg@M`@OrDiBvi@ExDKfD]|IGXg@vMOdBgBM}@@oAM]G_@YqDyJOQSMsAzHpDlBN@pAUbAd@xBTA@d@LfBPk@bO@p@YrHWv@k@l@If@a@fKQxBOpA]bBMCMDKJEP?TBPHHyJzSIJMDKAs@WSMy@SSJGVSNI?wBg@I@y@p@GV[hD","routeName":"B_22_B"}},{"deviceType":"B","onlyOneRoute":true,"color":"8f4099","routeForward":{"duration":"00:20","name":"Pod Inalt - Torcatori - Gara de Sud","moveDirection":"F","stations":[{"lng":25.98124,"geohash":"sxfrxhyung","stationName":"Pod Inalt","lat":44.93891,"stationId":"PL_B_25R_F_0"},{"lng":25.98458,"geohash":"sxfrxkc6hd","stationName":"Eremia Grigorescu","lat":44.93856,"stationId":"PL_B_25R_F_1"},{"lng":25.98831,"geohash":"sxfrxku05x","stationName":"Biserica Inaltarea Domnului","lat":44.93824,"stationId":"PL_B_25R_F_2"},{"lng":25.99574,"geohash":"sxfrxs9t0s","stationName":"Enachita Vacarescu","lat":44.93771,"stationId":"PL_B_25R_F_3"},{"lng":26.00017,"geohash":"sxfrxsssxg","stationName":"Zimbrului","lat":44.93762,"stationId":"PL_B_25R_F_4"},{"lng":26.01136,"geohash":"sxfrxfsvss","stationName":"Cimitir Bolovani","lat":44.92681,"stationId":"PL_B_25R_F_5"},{"lng":26.01388,"geohash":"sxfrxfw8xr","stationName":"Campiei","lat":44.92597,"stationId":"PL_B_25R_F_6"},{"lng":26.0154105423,"geohash":"sxfrxfrv54","stationName":"Stindardului","lat":44.9253409752,"stationId":"PL_B_25R_F_7"},{"lng":26.02151,"geohash":"sxfx84kk10","stationName":"UZUC","lat":44.92516,"stationId":"PL_B_25R_F_8"},{"lng":26.02947,"geohash":"sxfx866p4e","stationName":"Gara de Sud","lat":44.92569,"stationId":"PL_B_25R_F_9"}],"routeWayPoints":[],"routeWayPointsEncoded":"echqGwmq}CdA{S~@iVhBmm@PuZpbA}dAfDwN|BqHb@ce@iBwp@","routeName":"B_25R_F"},"name":"Pod Inalt - Torcatori - Gara de Sud","lineNumber":"25R"},{"deviceType":"B","onlyOneRoute":false,"color":"8f4099","routeForward":{"duration":"00:35","name":"Spitalul Judetean - Uztel","moveDirection":"F","stations":[{"lng":26.007071018,"geohash":"sxfrzc3c0t","stationName":"Spitalul Judetean","lat":44.9631213338,"stationId":"PL_B_28_F_0"},{"lng":26.0099,"geohash":"sxfrzbgb6w","stationName":"Cramele Halewood","lat":44.96025,"stationId":"PL_B_28_F_1"},{"lng":26.00928,"geohash":"sxfrzb76h5","stationName":"Complex Mestesugaresc","lat":44.95779,"stationId":"PL_B_28_F_2"},{"lng":26.00404,"geohash":"sxfrxxzwd4","stationName":"XXL Mega Discount","lat":44.95581,"stationId":"PL_B_28_F_3"},{"lng":26.0006798504,"geohash":"sxfrxxmhgz","stationName":"Complex Nord","lat":44.9527920416,"stationId":"PL_B_28_F_4"},{"lng":26.00364,"geohash":"sxfrxwzkbs","stationName":"8 martie","lat":44.95003,"stationId":"PL_B_28_F_5"},{"lng":26.01178,"geohash":"sxfrxymjym","stationName":"Piata Mihai Viteazul","lat":44.94746,"stationId":"PL_B_28_F_6"},{"lng":26.02364,"geohash":"sxfx8jvf6z","stationName":"Hale","lat":44.94412,"stationId":"PL_B_28_F_7"},{"lng":26.028949797,"geohash":"sxfx8kcsw6","stationName":"Muzeul Petrolului","lat":44.9389861283,"stationId":"PL_B_28_F_8"},{"lng":26.03759,"geohash":"sxfx8mpbxc","stationName":"Maternitate","lat":44.93967,"stationId":"PL_B_28_F_9"},{"lng":26.0432813762,"geohash":"sxfx8su1s6","stationName":"Gradinari","lat":44.9384750157,"stationId":"PL_B_28_F_10"},{"lng":26.05102,"geohash":"sxfx8ucv8b","stationName":"Fero","lat":44.93915,"stationId":"PL_B_28_F_11"},{"lng":26.05756,"geohash":"sxfx8vnw3h","stationName":"Dacia","lat":44.94067,"stationId":"PL_B_28_F_12"},{"lng":26.07096,"geohash":"sxfx9m2q33","stationName":"Petrotel","lat":44.94203,"stationId":"PL_B_28_F_13"},{"lng":26.08161,"geohash":"sxfx9t801t","stationName":"Garsoniere","lat":44.94235,"stationId":"PL_B_28_F_14"},{"lng":26.08976,"geohash":"sxfx9tmzxq","stationName":"Uztel debarcare","lat":44.94227,"stationId":"PL_B_28_F_15"}],"routeWayPoints":[],"routeWayPointsEncoded":"mzlqGkov}CCEjEwElR}RNKLEnALJJLVfGrZdAlEr@`Cr@fBv@|AdCdDzGfIjBlBrG`G~DoLdGyRbDsLvA}EJSZ_@b@YR[Hm@?[Sy@AaADe@h@{DXaBRaBnKwr@n@uDPu@tCcId@mBd@qBn@mEjBkITm@`C_Dj@m@h@]ZMRCX@bGn@~ADxBA?aCfBcAd@i@h@iA\\aAcAeC`@mAT{@L{@RsBNs@w@B}BWSDwA`Aq@t@VsAHaABsB?cDCeCUuGq@{O?w@DqA`@aD^qBTw@hB}Et@eCZuALkAHwBDwB@aIE}BI_AWcAa@cCeAuFsBcKiDaPQsAOuBaCcl@QmBwAaJc@sEIuBGyGo@ud@_@yf@FmTFkc@","routeName":"B_28_F"},"name":"Spitalul Judetean - Uztel","lineNumber":"28","routeBackward":{"duration":"00:35","name":"Uztel - Spitalul Judetean","moveDirection":"B","stations":[{"lng":26.09056,"geohash":"sxfx9tw8fj","stationName":"Uztel imbarcare","lat":44.94248,"stationId":"PL_B_28_B_0"},{"lng":26.08186,"geohash":"sxfx9t80zr","stationName":"Garsoniere","lat":44.94249,"stationId":"PL_B_28_B_1"},{"lng":26.07063,"geohash":"sxfx9m2p1t","stationName":"Petrotel","lat":44.94218,"stationId":"PL_B_28_B_2"},{"lng":26.05752,"geohash":"sxfx8vnx25","stationName":"Dacia","lat":44.94084,"stationId":"PL_B_28_B_3"},{"lng":26.05186,"geohash":"sxfx8v42k6","stationName":"Fero","lat":44.93963,"stationId":"PL_B_28_B_4"},{"lng":26.04545,"geohash":"sxfx8sv9qy","stationName":"Gradinari","lat":44.93845,"stationId":"PL_B_28_B_5"},{"lng":26.0381,"geohash":"sxfx8t037e","stationName":"Maternitate","lat":44.93981,"stationId":"PL_B_28_B_6"},{"lng":26.0199,"geohash":"sxfx8jepg9","stationName":"Hale Coreco","lat":44.94366,"stationId":"PL_B_28_B_7"},{"lng":26.01639,"geohash":"sxfx8n0xcv","stationName":"Colinii","lat":44.94643,"stationId":"PL_B_28_B_8"},{"lng":26.01163,"geohash":"sxfrxymp4g","stationName":"Piata Mihai Viteazul","lat":44.94766,"stationId":"PL_B_28_B_9"},{"lng":26.0068811176,"geohash":"sxfrxy9xsk","stationName":"Magazinul Dacia","lat":44.9491280765,"stationId":"PL_B_28_B_10"},{"lng":26.001568198,"geohash":"sxfrxxtc23","stationName":"Complex Nord","lat":44.9535323232,"stationId":"PL_B_28_B_11"},{"lng":26.00357,"geohash":"sxfrxxz5r0","stationName":"XXL Mega Discount","lat":44.95524,"stationId":"PL_B_28_B_12"},{"lng":26.01085,"geohash":"sxfrzbke8t","stationName":"Complex Mestesugaresc","lat":44.95806,"stationId":"PL_B_28_B_13"},{"lng":26.01031,"geohash":"sxfrzbu0hh","stationName":"Cramele Halewood","lat":44.9602,"stationId":"PL_B_28_B_14"},{"lng":26.00766,"geohash":"sxfrzc4pq7","stationName":"Spitalul Judetean","lat":44.96281,"stationId":"PL_B_28_B_15"}],"routeWayPoints":[],"routeWayPointsEncoded":"qxhqGkxf~CIAGfg@GlT^xf@n@td@FxGHtBb@rEvA`JPlB`Cbl@NtBPrAhD`PbDlPr@~DBxAFfG?jJIxBSxAUfAm@nByBxFY|ASrBMzCAbA@x@HvAJAK@z@xTBdC?bDCrBI`AMt@W|@e@|BGd@Ch@PdGLdAHxC?f@w@AoAIkBUwAUcAEc@Nm@^k@h@_C|CQZM\\yAjGAXtGvMFTATwEjN[j@cA|CYd@q@d@YH]A_AJyECkCzPEh@cDhTOn@I|@aB~KSb@i@j@ITEX?\\FXBp@EZiAfE_EbNaH~TiBtFKPWR[DO?aDoC{A{AqByB_HoI}@oAcAiBu@iBg@_Be@qByI{b@JKB]s@d@iY~Y","routeName":"B_28_B"}},{"deviceType":"B","onlyOneRoute":false,"color":"8f4099","routeForward":{"duration":"00:24","name":"Bloc Republicii - Hipodrom","moveDirection":"F","stations":[{"lng":26.009670615,"geohash":"sxfrxzgejq","stationName":"Biserica Sf. Andrei","lat":44.9552322774,"stationId":"PL_B_30_F_0"},{"lng":26.0108400581,"geohash":"sxfrxzhwbt","stationName":"Cina","lat":44.9517472792,"stationId":"PL_B_30_F_1"},{"lng":26.0110653637,"geohash":"sxfrxykdvg","stationName":"Piata Mihai Viteazul","lat":44.94693323,"stationId":"PL_B_30_F_2"},{"lng":26.02051,"geohash":"sxfx8j7t3v","stationName":"Galeriile Comerciale","lat":44.94188,"stationId":"PL_B_30_F_3"},{"lng":26.02515,"geohash":"sxfx8hybjc","stationName":"PTTR","lat":44.93821,"stationId":"PL_B_30_F_4"},{"lng":26.02678,"geohash":"sxfx87bhgu","stationName":"Ana Ipatescu","lat":44.93355,"stationId":"PL_B_30_F_5"},{"lng":26.0278323887,"geohash":"sxfx872fk2","stationName":"13 Decembrie","lat":44.9303520435,"stationId":"PL_B_30_F_6"},{"lng":26.02947,"geohash":"sxfx866p4e","stationName":"Gara de Sud","lat":44.92569,"stationId":"PL_B_30_F_7"},{"lng":26.0342718361,"geohash":"sxfx83te6w","stationName":"Rulmenti Grei","lat":44.9209425423,"stationId":"PL_B_30_F_8"},{"lng":26.03497,"geohash":"sxfx82y54u","stationName":"Bariera Bucuresti","lat":44.91677,"stationId":"PL_B_30_F_9"},{"lng":26.036,"geohash":"sxfx82qg4y","stationName":"UPG","lat":44.91403,"stationId":"PL_B_30_F_10"},{"lng":26.03772,"geohash":"sxfx2x8p4f","stationName":"Hipodrom","lat":44.91058,"stationId":"PL_B_30_F_11"}],"routeWayPoints":[],"routeWayPointsEncoded":"eikqG}_w}CA@xDcDjBqA`A_@v@OlAAjBZ~A`@dElAfH~B`@RjAb@^`@Xf@BXHZLNPLPBVCVSNc@ToBNq@|D{IX{@|@oB~@_BrLkWn@mAh@m@b@[PIPQPo@?uAH}ANw@lG}QdAiCjAwB`BiBpDoDVAfAk@ZIp@C|@UdAa@f@Md@UtTgFpFiAvKgC~T_FfAJ^ClD{@Q{AqCn@SWUa@_AuIMwACeADy@Ls@Pc@b@o@r@c@p@WpCy@rBc@pAKfEQrL_@tH[dHk@nBEb@BPHLCNSpCsAvDmAn^iJ","routeName":"B_30_F"},"name":"Bloc Republicii - Hipodrom","lineNumber":"30","routeBackward":{"duration":"00:26","name":"Hipodrom - Bloc Republicii","moveDirection":"B","stations":[{"lng":26.03732,"geohash":"sxfx2rzf3e","stationName":"Hipodrom","lat":44.91114,"stationId":"PL_B_30_B_0"},{"lng":26.03604,"geohash":"sxfx82qyes","stationName":"UPG","lat":44.91462,"stationId":"PL_B_30_B_1"},{"lng":26.03497,"geohash":"sxfx83n44f","stationName":"Bariera Bucuresti","lat":44.91796,"stationId":"PL_B_30_B_2"},{"lng":26.0343678592,"geohash":"sxfx83txhe","stationName":"Rulmenti Grei","lat":44.9215692826,"stationId":"PL_B_30_B_3"},{"lng":26.02968,"geohash":"sxfx86d1x8","stationName":"Coreco Sud","lat":44.9261,"stationId":"PL_B_30_B_4"},{"lng":26.028068423,"geohash":"sxfx87349c","stationName":"13 Decembrie","lat":44.9303968578,"stationId":"PL_B_30_B_5"},{"lng":26.02702,"geohash":"sxfx87bm1d","stationName":"Ana Ipatescu","lat":44.93358,"stationId":"PL_B_30_B_6"},{"lng":26.02264,"geohash":"sxfx8jm177","stationName":"Palatul Culturii","lat":44.94118,"stationId":"PL_B_30_B_7"},{"lng":26.0199,"geohash":"sxfx8jepg9","stationName":"Hale Coreco","lat":44.94366,"stationId":"PL_B_30_B_8"},{"lng":26.01163,"geohash":"sxfrxymp4g","stationName":"Piata Mihai Viteazul","lat":44.94766,"stationId":"PL_B_30_B_9"},{"lng":26.0068811176,"geohash":"sxfrxy9xsk","stationName":"Magazinul Dacia","lat":44.9491280765,"stationId":"PL_B_30_B_10"},{"lng":26.001568198,"geohash":"sxfrxxtc23","stationName":"Complex Nord","lat":44.9535323232,"stationId":"PL_B_30_B_11"},{"lng":26.00357,"geohash":"sxfrxxz5r0","stationName":"XXL Mega Discount","lat":44.95524,"stationId":"PL_B_30_B_12"},{"lng":26.0054965613,"geohash":"sxfrzb0d5z","stationName":"Complex Mic","lat":44.9564394496,"stationId":"PL_B_30_B_13"},{"lng":26.009670615,"geohash":"sxfrxzgejq","stationName":"Biserica Sf. Andrei","lat":44.9552322774,"stationId":"PL_B_30_B_14"}],"routeWayPoints":[],"routeWayPointsEncoded":"{tbqG_l|}Ce\\pIwDlA_BZ]BYAKIM?u@h@mBd@qGh@kAFs[hAkBV_ATgDdAg@R]RSR_@l@Qf@Ip@Cz@DlAlAnLAb@I\\?b@LZTFrD{@Q{AqCn@SCMDIHUd@[\\SNuYpGiK`CiFfAuP|Dk@@_Ch@oBXe@Tm@^OZsApA_EfEeBdD{@|BmEnMoD}CGPU\\]~@c@xAYd@q@d@YH]A_AJyECkH`f@UlAmBbNOd@k@n@KTETA^JbAAXI`@cGxSqHdVyAnEW^YHY@eCqBeBcBgCoC_HoI}@oAcAiBu@iBg@_Be@qBVULQZm@Pu@JgAP{EJ_AVy@\\k@nBeB","routeName":"B_30_B"}},{"deviceType":"B","onlyOneRoute":false,"color":"8f4099","routeForward":{"duration":"00:29","name":"Hale Catedrala - Protan","moveDirection":"F","stations":[{"lng":26.01969,"geohash":"sxfx8jdzn9","stationName":"Hale Catedrala","lat":44.94353,"stationId":"PL_B_32_F_0"},{"lng":26.02515,"geohash":"sxfx8hybjc","stationName":"PTTR","lat":44.93821,"stationId":"PL_B_32_F_1"},{"lng":26.02678,"geohash":"sxfx87bhgu","stationName":"Ana Ipatescu","lat":44.93355,"stationId":"PL_B_32_F_2"},{"lng":26.0278323887,"geohash":"sxfx872fk2","stationName":"13 Decembrie","lat":44.9303520435,"stationId":"PL_B_32_F_3"},{"lng":26.02947,"geohash":"sxfx866p4e","stationName":"Gara de Sud","lat":44.92569,"stationId":"PL_B_32_F_4"},{"lng":26.0342718361,"geohash":"sxfx83te6w","stationName":"Rulmenti Grei","lat":44.9209425423,"stationId":"PL_B_32_F_5"},{"lng":26.0357,"geohash":"sxfx82yxgz","stationName":"Bariera Bucuresti","lat":44.9176,"stationId":"PL_B_32_F_6"},{"lng":26.03783,"geohash":"sxfx888pvq","stationName":"Ghighiului","lat":44.91622,"stationId":"PL_B_32_F_7"},{"lng":26.04306,"geohash":"sxfx88ecpk","stationName":"Vintileanca","lat":44.91505,"stationId":"PL_B_32_F_8"},{"lng":26.04351,"geohash":"sxfx88umcy","stationName":"Moreni","lat":44.91725,"stationId":"PL_B_32_F_9"},{"lng":26.0402531622,"geohash":"sxfx893gvg","stationName":"Eternitatii","lat":44.9196373812,"stationId":"PL_B_32_F_10"},{"lng":26.04559,"geohash":"sxfx89tvf0","stationName":"Oxigen","lat":44.92134,"stationId":"PL_B_32_F_11"},{"lng":26.04877,"geohash":"sxfx8f21hr","stationName":"Bar Rafov","lat":44.92468,"stationId":"PL_B_32_F_12"},{"lng":26.0508001445,"geohash":"sxfx8f99gd","stationName":"Corlatesti","lat":44.9261556739,"stationId":"PL_B_32_F_13"},{"lng":26.05409,"geohash":"sxfx8fsp8m","stationName":"Protan","lat":44.92716,"stationId":"PL_B_32_F_14"}],"routeWayPoints":[],"routeWayPointsEncoded":"{`iqGc_y}CAAf@wAZk@nD|C`F{Nn@}A|AyCl@u@dFcFVAv@c@\\Mr@Ev@OvAi@f@Md@UrBg@`MuChFgAbSsEzQ_EtAJ~D_A_@}CmDv@mAmLCeADy@Ls@Pc@b@o@r@c@p@WpCy@rBc@pAKfEQ|K]jI]dHk@nBEb@BPHLCJKDO?SCQIMSCi@aC}@oD_@y@lEsBvE}AtFyVU}AyAyLqR`IpBpLyHbDe@kAs@wBeB_EqA{Di@kFi@iGQ}@}OgXmF~IoLgk@","routeName":"B_32_F"},"name":"Hala Catedrala - Protan","lineNumber":"32","routeBackward":{"duration":"00:29","name":"Protan - Hale Catedrala","moveDirection":"B","stations":[{"lng":26.05386,"geohash":"sxfx8fezfc","stationName":"Protan","lat":44.92718,"stationId":"PL_B_32_B_0"},{"lng":26.04925,"geohash":"sxfx8f0qxe","stationName":"Bar Rafov","lat":44.92423,"stationId":"PL_B_32_B_1"},{"lng":26.04538,"geohash":"sxfx89twjm","stationName":"Oxigen","lat":44.92141,"stationId":"PL_B_32_B_2"},{"lng":26.04044,"geohash":"sxfx896j4h","stationName":"Eternitatii","lat":44.91986,"stationId":"PL_B_32_B_3"},{"lng":26.04328,"geohash":"sxfx88uph7","stationName":"Moreni","lat":44.91745,"stationId":"PL_B_32_B_4"},{"lng":26.04261,"geohash":"sxfx88e9hf","stationName":"Vintileanca","lat":44.91504,"stationId":"PL_B_32_B_5"},{"lng":26.03797,"geohash":"sxfx88b22e","stationName":"Ghighiului","lat":44.91629,"stationId":"PL_B_32_B_6"},{"lng":26.03497,"geohash":"sxfx83n44f","stationName":"Bariera Bucuresti","lat":44.91796,"stationId":"PL_B_32_B_7"},{"lng":26.0343678592,"geohash":"sxfx83txhe","stationName":"Rulmenti Grei","lat":44.9215692826,"stationId":"PL_B_32_B_8"},{"lng":26.02968,"geohash":"sxfx86d1x8","stationName":"Coreco Sud","lat":44.9261,"stationId":"PL_B_32_B_9"},{"lng":26.028068423,"geohash":"sxfx87349c","stationName":"13 Decembrie","lat":44.9303968578,"stationId":"PL_B_32_B_10"},{"lng":26.02702,"geohash":"sxfx87bm1d","stationName":"Ana Ipatescu","lat":44.93358,"stationId":"PL_B_32_B_11"},{"lng":26.02264,"geohash":"sxfx8jm177","stationName":"Palatul Culturii","lat":44.94118,"stationId":"PL_B_32_B_12"},{"lng":26.01969,"geohash":"sxfx8jdzn9","stationName":"Hale Catedrala","lat":44.94353,"stationId":"PL_B_32_B_13"}],"routeWayPoints":[],"routeWayPointsEncoded":"kyeqGos_~CEBjJjd@lF_J|OfXP|@h@hGh@jFpAzDdB~DxAbExHcDqBqLpRaIxAxLT|AuFxVwE|AmErB^x@|@nDh@`CE@o@f@mBd@qGh@_^pAkBV_ATaEpAk@Ze@j@Ub@Or@Gr@@dALbBbArJAb@I\\?b@LZTFrD{@Q{AqCn@KCK@KDIJIRY^_@Z_U~EwKfCqFhAuTfFk@@mBd@sCd@m@\\SNOZe@`@_E`Em@t@u@rAg@dAo@|AeClHwCjIQVs@t@YVUJ_@EWIaA{@@q@f@gB","routeName":"B_32_B"}},{"deviceType":"B","onlyOneRoute":false,"color":"8f4099","routeForward":{"duration":"00:25","name":"Hale Catedrala - Protan","moveDirection":"F","stations":[{"lng":26.01969,"geohash":"sxfx8jdzn9","stationName":"Hale Catedrala","lat":44.94353,"stationId":"PL_B_32B_F_0"},{"lng":26.02515,"geohash":"sxfx8hybjc","stationName":"PTTR","lat":44.93821,"stationId":"PL_B_32B_F_1"},{"lng":26.02678,"geohash":"sxfx87bhgu","stationName":"Ana Ipatescu","lat":44.93355,"stationId":"PL_B_32B_F_2"},{"lng":26.0278323887,"geohash":"sxfx872fk2","stationName":"13 Decembrie","lat":44.9303520435,"stationId":"PL_B_32B_F_3"},{"lng":26.02947,"geohash":"sxfx866p4e","stationName":"Gara de Sud","lat":44.92569,"stationId":"PL_B_32B_F_4"},{"lng":26.0342718361,"geohash":"sxfx83te6w","stationName":"Rulmenti Grei","lat":44.9209425423,"stationId":"PL_B_32B_F_5"},{"lng":26.0357,"geohash":"sxfx82yxgz","stationName":"Bariera Bucuresti","lat":44.9176,"stationId":"PL_B_32B_F_6"},{"lng":26.03783,"geohash":"sxfx888pvq","stationName":"Ghighiului","lat":44.91622,"stationId":"PL_B_32B_F_7"},{"lng":26.04306,"geohash":"sxfx88ecpk","stationName":"Vintileanca","lat":44.91505,"stationId":"PL_B_32B_F_8"},{"lng":26.04351,"geohash":"sxfx88umcy","stationName":"Moreni","lat":44.91725,"stationId":"PL_B_32B_F_9"},{"lng":26.0402531622,"geohash":"sxfx893gvg","stationName":"Eternitatii","lat":44.9196373812,"stationId":"PL_B_32B_F_10"},{"lng":26.04559,"geohash":"sxfx89tvf0","stationName":"Oxigen","lat":44.92134,"stationId":"PL_B_32B_F_11"},{"lng":26.04877,"geohash":"sxfx8f21hr","stationName":"Bar Rafov","lat":44.92468,"stationId":"PL_B_32B_F_12"},{"lng":26.04931,"geohash":"sxfx8fbwbf","stationName":"Fagarasi","lat":44.92839,"stationId":"PL_B_32B_F_13"},{"lng":26.05132,"geohash":"sxfx8f9gpz","stationName":"Corlatesti","lat":44.9264,"stationId":"PL_B_32B_F_14"},{"lng":26.05409,"geohash":"sxfx8fsp8m","stationName":"Protan","lat":44.92716,"stationId":"PL_B_32B_F_15"}],"routeWayPoints":[],"routeWayPointsEncoded":"a`iqGa~x}Cf`@ca@b\\eI~RqEb\\gIt\\_]zS}GrGiLhFu_@wLyA}MjSsIk`@{S{ReVkBlKqKwCiP","routeName":"B_32B_F"},"name":"Hale Catedrala - Protan","lineNumber":"32B","routeBackward":{"duration":"00:25","name":"Protan - Hale Catedrala","moveDirection":"B","stations":[{"lng":26.05386,"geohash":"sxfx8fezfc","stationName":"Protan","lat":44.92718,"stationId":"PL_B_32B_B_0"},{"lng":26.04931,"geohash":"sxfx8fbwbf","stationName":"Fagarasi","lat":44.92839,"stationId":"PL_B_32B_B_1"},{"lng":26.04877,"geohash":"sxfx8f21hr","stationName":"Bar Rafov","lat":44.92468,"stationId":"PL_B_32B_B_2"},{"lng":26.04538,"geohash":"sxfx89twjm","stationName":"Oxigen","lat":44.92141,"stationId":"PL_B_32B_B_3"},{"lng":26.04044,"geohash":"sxfx896j4h","stationName":"Eternitatii","lat":44.91986,"stationId":"PL_B_32B_B_4"},{"lng":26.04328,"geohash":"sxfx88uph7","stationName":"Moreni","lat":44.91745,"stationId":"PL_B_32B_B_5"},{"lng":26.04261,"geohash":"sxfx88e9hf","stationName":"Vintileanca","lat":44.91504,"stationId":"PL_B_32B_B_6"},{"lng":26.03797,"geohash":"sxfx88b22e","stationName":"Ghighiului","lat":44.91629,"stationId":"PL_B_32B_B_7"},{"lng":26.03497,"geohash":"sxfx83n44f","stationName":"Bariera Bucuresti","lat":44.91796,"stationId":"PL_B_32B_B_8"},{"lng":26.0343678592,"geohash":"sxfx83txhe","stationName":"Rulmenti Grei","lat":44.9215692826,"stationId":"PL_B_32B_B_9"},{"lng":26.02968,"geohash":"sxfx86d1x8","stationName":"Coreco Sud","lat":44.9261,"stationId":"PL_B_32B_B_10"},{"lng":26.028068423,"geohash":"sxfx87349c","stationName":"13 Decembrie","lat":44.9303968578,"stationId":"PL_B_32B_B_11"},{"lng":26.02702,"geohash":"sxfx87bm1d","stationName":"Ana Ipatescu","lat":44.93358,"stationId":"PL_B_32B_B_12"},{"lng":26.02264,"geohash":"sxfx8jm177","stationName":"Palatul Culturii","lat":44.94118,"stationId":"PL_B_32B_B_13"},{"lng":26.01969,"geohash":"sxfx8jdzn9","stationName":"Hale Catedrala","lat":44.94353,"stationId":"PL_B_32B_B_14"}],"routeWayPoints":[],"routeWayPointsEncoded":"{yeqGss_~CqFl[dVjBlSdTtHz]`NwP`NdCyF~[mIvQqUvBi[h\\{Y`I{RpEon@jZuMlQ","routeName":"B_32B_B"}},{"deviceType":"B","onlyOneRoute":false,"color":"8f4099","routeForward":{"duration":"00:16","name":"Lamaita - Grivitei","moveDirection":"F","stations":[{"lng":25.98941,"geohash":"sxfrx7kyjp","stationName":"Lamaita","lat":44.93103,"stationId":"PL_B_35_F_0"},{"lng":25.98988,"geohash":"sxfrxkmm2h","stationName":"Biserica Inaltarea Domnului","lat":44.93638,"stationId":"PL_B_35_F_1"},{"lng":25.99574,"geohash":"sxfrxs9t0s","stationName":"Enachita Vacarescu","lat":44.93771,"stationId":"PL_B_35_F_2"},{"lng":26.00017,"geohash":"sxfrxsssxg","stationName":"Zimbrului","lat":44.93762,"stationId":"PL_B_35_F_3"},{"lng":26.00617,"geohash":"sxfrxu9j79","stationName":"Popa Farcas","lat":44.93774,"stationId":"PL_B_35_F_4"},{"lng":26.01231,"geohash":"sxfrxuv9dc","stationName":"Logofat Tautu","lat":44.93847,"stationId":"PL_B_35_F_5"},{"lng":26.0215125678,"geohash":"sxfx8huq11","stationName":"Tache Ionescu","lat":44.9392424424,"stationId":"PL_B_35_F_6"},{"lng":26.02264,"geohash":"sxfx8jm177","stationName":"Palatul Culturii","lat":44.94118,"stationId":"PL_B_35_F_7"},{"lng":26.02084,"geohash":"sxfx8j7y3t","stationName":"Grivitei","lat":44.94205,"stationId":"PL_B_35_F_8"}],"routeWayPoints":[],"routeWayPointsEncoded":"grfqGo`s}C?BYDa@?iANuBAcVkBsJ}@SOU[Mg@Iy@|Aue@BkBGej@KwHoBuXO}CIaAEyIFeLCcBIuBCeHOsLM_BMw@IiAGOc@C]G?a@KcAkBgFiBoEm@t@kAvBq@|AqF|OoD}Cg@`AWv@","routeName":"B_35_F"},"name":"Lamaita - Hale Coreco","lineNumber":"35","routeBackward":{"duration":"00:16","name":"Grivitei - Lamaita","moveDirection":"B","stations":[{"lng":26.02084,"geohash":"sxfx8j7y3t","stationName":"Grivitei","lat":44.94205,"stationId":"PL_B_35_B_0"},{"lng":26.02264,"geohash":"sxfx8jm177","stationName":"Palatul Culturii","lat":44.94118,"stationId":"PL_B_35_B_1"},{"lng":26.01565,"geohash":"sxfx8h2p8w","stationName":"Tudor Vladimirescu","lat":44.93678,"stationId":"PL_B_35_B_2"},{"lng":26.01052,"geohash":"sxfrxuhrc1","stationName":"Popa Farcas","lat":44.93542,"stationId":"PL_B_35_B_3"},{"lng":26.006,"geohash":"sxfrxgbfrw","stationName":"Torcatori","lat":44.93313,"stationId":"PL_B_35_B_4"},{"lng":25.99925,"geohash":"sxfrxekn6k","stationName":"Scoala 20","lat":44.93106,"stationId":"PL_B_35_B_5"},{"lng":25.9929,"geohash":"sxfrx7p2qm","stationName":"Bariera Mararesti","lat":44.92866,"stationId":"PL_B_35_B_6"},{"lng":25.98941,"geohash":"sxfrx7kyjp","stationName":"Lamaita","lat":44.93103,"stationId":"PL_B_35_B_7"}],"routeWayPoints":[],"routeWayPointsEncoded":"{`iqGg_y}Cq@zBG^?b@BRJVd@h@NTJVFV?TF^JRNNNFR@j@Kj@J^Nx@l@zArAd@p@Vh@v@~BzGcJNHHCFK@MVAlDL|Cn@j@R~@j@t@r@Rb@F^r@rId@xClCjKP~@jAdMLbAhAvEb@dA~ElI|DoAvAbOvAzJ?jANvA\\zBlAnF|Nhi@HLX~@E^q@xA_@p@{@vAgApAy@t@uA`AsAr@gA\\_@H","routeName":"B_35_B"}},{"deviceType":"B","onlyOneRoute":false,"color":"8f4099","routeForward":{"duration":"00:16","name":"Bloc 39 - Grivitei","moveDirection":"F","stations":[{"lng":25.98896,"geohash":"sxfrx7swfd","stationName":"Bloc 39","lat":44.93251,"stationId":"PL_B_35B_F_0"},{"lng":25.9929,"geohash":"sxfrx6zrn2","stationName":"Bariera Marasesti","lat":44.92842,"stationId":"PL_B_35B_F_1"},{"lng":25.99984,"geohash":"sxfrxekw0p","stationName":"Palatul Copiilor","lat":44.93103,"stationId":"PL_B_35B_F_2"},{"lng":26.00622,"geohash":"sxfrxgc4ku","stationName":"Torcatori","lat":44.93312,"stationId":"PL_B_35B_F_3"},{"lng":26.00976,"geohash":"sxfrxu5wxm","stationName":"Popa Farcas","lat":44.93523,"stationId":"PL_B_35B_F_4"},{"lng":26.01583,"geohash":"sxfx8h2pkc","stationName":"Tudor Vladimirescu","lat":44.93671,"stationId":"PL_B_35B_F_5"},{"lng":26.0215125678,"geohash":"sxfx8huq11","stationName":"Tache Ionescu","lat":44.9392424424,"stationId":"PL_B_35B_F_6"},{"lng":26.02264,"geohash":"sxfx8jm177","stationName":"Palatul Culturii","lat":44.94118,"stationId":"PL_B_35B_F_7"},{"lng":26.02084,"geohash":"sxfx8j7y3t","stationName":"Grivitei","lat":44.94205,"stationId":"PL_B_35B_F_8"}],"routeWayPoints":[],"routeWayPointsEncoded":"syfqGm~r}CA@l@Dv@@v@Ap@Mx@SpBs@vAy@~AqAzAaBh@w@h@aA`AwBPCHMBUESMME?qN{g@eA}Di@cCqAyHwA{JI{@I}AJkAAs@Mq@}@wDeA^AAwBp@_FmIc@eAiAwEa@wDw@qIQ_AmCkKe@yCs@sIJ}@ESwAe@_Ak@g@QaDq@OmLIsAO}@KoAEQKGS@c@I?a@KcAMg@gEoKm@t@kAvBWl@}@|BmEnMoD}Cg@`AM^","routeName":"B_35B_F"},"name":"Bloc 39 - Hale Coreco","lineNumber":"35B","routeBackward":{"duration":"00:16","name":"Grivitei - Bloc 39","moveDirection":"B","stations":[{"lng":26.02084,"geohash":"sxfx8j7y3t","stationName":"Grivitei","lat":44.94205,"stationId":"PL_B_35B_B_0"},{"lng":26.01237,"geohash":"sxfrxuvehn","stationName":"Logofat Tautu","lat":44.93875,"stationId":"PL_B_35B_B_1"},{"lng":26.00699,"geohash":"sxfrxu9wyy","stationName":"Popa Farcas","lat":44.93802,"stationId":"PL_B_35B_B_2"},{"lng":26.00204,"geohash":"sxfrxswjg6","stationName":"Zimbrului","lat":44.93783,"stationId":"PL_B_35B_B_3"},{"lng":25.99644,"geohash":"sxfrxsdjby","stationName":"Enachita Vacarescu","lat":44.93785,"stationId":"PL_B_35B_B_4"},{"lng":25.98968,"geohash":"sxfrxkt157","stationName":"Biserica Inaltarii Domnului","lat":44.93702,"stationId":"PL_B_35B_B_5"},{"lng":25.98896,"geohash":"sxfrx7swfd","stationName":"Bloc 39","lat":44.93251,"stationId":"PL_B_35B_B_6"}],"routeWayPoints":[],"routeWayPointsEncoded":"w`iqGo_y}Cu@bCG^?b@BRJVd@h@Vb@J\\Bf@FVJR^RX?XKP@j@L\\P`BrAj@f@d@p@Vh@v@~BzGcJDDLBjBnObAfLd@fGNl@H`AN|CpBrY@xBDz@Hhm@cBpj@M`@GrAxHl@~ZlC","routeName":"B_35B_B"}},{"deviceType":"B","onlyOneRoute":false,"color":"8f4099","routeForward":{"duration":"00:26","name":"Pod Inalt - Uztel","moveDirection":"F","stations":[{"lng":25.98124,"geohash":"sxfrxhyung","stationName":"Pod Inalt","lat":44.93891,"stationId":"PL_B_36_F_0"},{"lng":25.98458,"geohash":"sxfrxkc6hd","stationName":"Eremia Grigorescu","lat":44.93856,"stationId":"PL_B_36_F_1"},{"lng":25.98831,"geohash":"sxfrxku05x","stationName":"Biserica Inaltarea Domnului","lat":44.93824,"stationId":"PL_B_36_F_2"},{"lng":25.98968,"geohash":"sxfrxkt157","stationName":"Biserica Inaltarii Domnului","lat":44.93702,"stationId":"PL_B_36_F_3"},{"lng":25.98896,"geohash":"sxfrx7swfd","stationName":"Bloc 39","lat":44.93251,"stationId":"PL_B_36_F_4"},{"lng":25.9929,"geohash":"sxfrx6zrn2","stationName":"Bariera Marasesti","lat":44.92842,"stationId":"PL_B_36_F_5"},{"lng":25.99984,"geohash":"sxfrxekw0p","stationName":"Palatul Copiilor","lat":44.93103,"stationId":"PL_B_36_F_6"},{"lng":26.01652,"geohash":"sxfx8h0ssu","stationName":"Plaiesilor","lat":44.93488,"stationId":"PL_B_36_F_7"},{"lng":26.0246797202,"geohash":"sxfx8hwd6b","stationName":"Liceul Mihai Viteazu","lat":44.9372184796,"stationId":"PL_B_36_F_8"},{"lng":26.0432813762,"geohash":"sxfx8su1s6","stationName":"Gradinari","lat":44.9384750157,"stationId":"PL_B_36_F_9"},{"lng":26.05102,"geohash":"sxfx8ucv8b","stationName":"Fero","lat":44.93915,"stationId":"PL_B_36_F_10"},{"lng":26.05756,"geohash":"sxfx8vnw3h","stationName":"Dacia","lat":44.94067,"stationId":"PL_B_36_F_11"},{"lng":26.07096,"geohash":"sxfx9m2q33","stationName":"Petrotel","lat":44.94203,"stationId":"PL_B_36_F_12"},{"lng":26.08161,"geohash":"sxfx9t801t","stationName":"Garsoniere","lat":44.94235,"stationId":"PL_B_36_F_13"},{"lng":26.08976,"geohash":"sxfx9tmzxq","stationName":"Uztel debarcare","lat":44.94227,"stationId":"PL_B_36_F_14"}],"routeWayPoints":[],"routeWayPointsEncoded":"gchqGipq}CEABaCh@wG|Aec@Lq@HOJGXIza@pD~@FnB?b@GbBe@jBu@tA{@`BwAp@q@f@s@nAyBp@}AD@NGFQ?UGQMIm@qBsNeh@aAeEqAyHwA{JUcCFkA@cBQi@y@eDsAmHqCgPqAmGmAkF]wGk@oH{@eHu@sDSoCY_JmAmKc@aBaC{Cc@q@MK_Ae@{@mA_AkAaC\\iBkGD}LI_DHg@pCmDv@iC`@oDNs@w@BwBUYBwA`Aq@t@VsAHaABsB?cDCeCQ}Fu@mP?}@DqA`@aD^qBTw@hB}E^kAp@oCLkAHwBFcJEsEI_AWcAa@cCyBgLiFsVYgCiCen@QmBqAgIYcCOiBIuBScRc@kZ_@yf@Niw@","routeName":"B_36_F"},"name":"Pod Inalt - Uztel","lineNumber":"36","routeBackward":{"duration":"00:26","name":"Uztel - Pod Inalt","moveDirection":"B","stations":[{"lng":26.09056,"geohash":"sxfx9tw8fj","stationName":"Uztel imbarcare","lat":44.94248,"stationId":"PL_B_36_B_0"},{"lng":26.08186,"geohash":"sxfx9t80zr","stationName":"Garsoniere","lat":44.94249,"stationId":"PL_B_36_B_1"},{"lng":26.07063,"geohash":"sxfx9m2p1t","stationName":"Petrotel","lat":44.94218,"stationId":"PL_B_36_B_2"},{"lng":26.05752,"geohash":"sxfx8vnx25","stationName":"Dacia","lat":44.94084,"stationId":"PL_B_36_B_3"},{"lng":26.05186,"geohash":"sxfx8v42k6","stationName":"Fero","lat":44.93963,"stationId":"PL_B_36_B_4"},{"lng":26.04545,"geohash":"sxfx8sv9qy","stationName":"Gradinari","lat":44.93845,"stationId":"PL_B_36_B_5"},{"lng":26.02996,"geohash":"sxfx8m46np","stationName":"Armoniei","lat":44.93996,"stationId":"PL_B_36_B_6"},{"lng":26.01462,"geohash":"sxfrxupq09","stationName":"Panificatie","lat":44.93512,"stationId":"PL_B_36_B_7"},{"lng":26.00836,"geohash":"sxfrxgfdqw","stationName":"Eroilor","lat":44.93313,"stationId":"PL_B_36_B_8"},{"lng":25.99925,"geohash":"sxfrxekn6k","stationName":"Scoala 20","lat":44.93106,"stationId":"PL_B_36_B_9"},{"lng":25.9929,"geohash":"sxfrx7p2qm","stationName":"Bariera Mararesti","lat":44.92866,"stationId":"PL_B_36_B_10"},{"lng":25.98941,"geohash":"sxfrx7kyjp","stationName":"Lamaita","lat":44.93103,"stationId":"PL_B_36_B_11"},{"lng":25.98988,"geohash":"sxfrxkmm2h","stationName":"Biserica Inaltarea Domnului","lat":44.93638,"stationId":"PL_B_36_B_12"},{"lng":25.98893,"geohash":"sxfrxku93b","stationName":"Biserica Inaltarea Domnului","lat":44.93842,"stationId":"PL_B_36_B_13"},{"lng":25.98138,"geohash":"sxfrxhzhf4","stationName":"Pod Inalt","lat":44.93903,"stationId":"PL_B_36_B_14"}],"routeWayPoints":[],"routeWayPointsEncoded":"_yhqGgxf~CB?G`g@GlTPdVVbWl@~e@HtBb@rEvA`JTdD|Bjj@NtBPrA~C~NfB|IxBpLBxAFfG?jJIxBSxAUfAm@nByBxFY|ASrBO~EfAjYBdC?bDCrBI`AMt@W|@i@fCGdAHhDFzALdAHxC?f@KJApCtB|Cj@hBC\\n@jCaAl@OZVAfAk@ZIP?v@nCJt@C\\m@^SDeBFGBFnGDVVXhBfEJ?hDbIvEvJdBnF`GrRzAnGpAlGfBrK|B`MvAbOvAzJ?jANvA`AlFbClJbLxa@HLX~@E^q@xA_@p@{@vAgApAw@r@cAt@uAv@iA`@iATa@?iANuBAmWsB?@_LeAuBfn@","routeName":"B_36_B"}},{"deviceType":"B","onlyOneRoute":false,"color":"8f4099","routeForward":{"duration":"00:40","name":"Hale Catedrala - Cartier Ploiesti Vest","moveDirection":"F","stations":[{"lng":26.01969,"geohash":"sxfx8jdzn9","stationName":"Hale Catedrala","lat":44.94353,"stationId":"PL_B_39_F_0"},{"lng":26.01237,"geohash":"sxfrxuvehn","stationName":"Logofat Tautu","lat":44.93875,"stationId":"PL_B_39_F_1"},{"lng":26.00699,"geohash":"sxfrxu9wyy","stationName":"Popa Farcas","lat":44.93802,"stationId":"PL_B_39_F_2"},{"lng":26.00204,"geohash":"sxfrxswjg6","stationName":"Zimbrului","lat":44.93783,"stationId":"PL_B_39_F_3"},{"lng":25.99644,"geohash":"sxfrxsdjby","stationName":"Enachita Vacarescu","lat":44.93785,"stationId":"PL_B_39_F_4"},{"lng":25.99122,"geohash":"sxfrxky0r2","stationName":"Liceul de Constructii","lat":44.93825,"stationId":"PL_B_39_F_5"},{"lng":25.98893,"geohash":"sxfrxku93b","stationName":"Biserica Inaltarea Domnului","lat":44.93842,"stationId":"PL_B_39_F_6"},{"lng":25.98017,"geohash":"sxfrxhyjtb","stationName":"Pod Inalt","lat":44.93915,"stationId":"PL_B_39_F_7"},{"lng":25.99017,"geohash":"sxfrrrmkqf","stationName":"Cartier Vest","lat":44.90873,"stationId":"PL_B_39_F_8"},{"lng":25.98479,"geohash":"sxfrrqct33","stationName":"Cartier Vest Debarcare\/Imbarcare","lat":44.90615,"stationId":"PL_B_39_F_9"}],"routeWayPoints":[],"routeWayPointsEncoded":"u`iqGm_y}CCA`@iAT]FQnD|C`F{Nn@}ApCzCb@r@Ff@?TYJUTS^~BfKXxAHbBA\\Kd@E@GJAPBLRHjBnOhAlM^`FNl@NzCzBv[@xBDz@Hhm@_@nM_@jK@?e@tOM`@OrD{Ahd@OpFCtBU|GSfFGXg@vMObCUzFUfG@p@uEhnArBNhABlA?vAMrAQdCc@zBs@h@GbAAb@KZUb@wATc@RSd@w@xA{AtAkBrBsDnLiUte@{`AvAcCz@kAr@u@r@o@NAXU@g@t@iA~@mA~AaBvdAk{@~A_A|@c@`AKhBApBV~@\\d@Xz@r@l@j@p@|@jBpDb@hAbCvFhBpD~DbJ","routeName":"B_39_F"},"name":"Hale Catedrala - Cartier Ploiesti Vest","lineNumber":"39","routeBackward":{"duration":"00:40","name":"Cartier Ploiesti Vest - Hale Catedrala","moveDirection":"B","stations":[{"lng":25.98479,"geohash":"sxfrrqct33","stationName":"Cartier Vest Debarcare\/Imbarcare","lat":44.90615,"stationId":"PL_B_39_B_0"},{"lng":25.99032,"geohash":"sxfrrrmedr","stationName":"Cartier Vest","lat":44.90863,"stationId":"PL_B_39_B_1"},{"lng":25.98124,"geohash":"sxfrxhyung","stationName":"Pod Inalt","lat":44.93891,"stationId":"PL_B_39_B_2"},{"lng":25.98458,"geohash":"sxfrxkc6hd","stationName":"Eremia Grigorescu","lat":44.93856,"stationId":"PL_B_39_B_3"},{"lng":25.98831,"geohash":"sxfrxku05x","stationName":"Biserica Inaltarea Domnului","lat":44.93824,"stationId":"PL_B_39_B_4"},{"lng":25.99574,"geohash":"sxfrxs9t0s","stationName":"Enachita Vacarescu","lat":44.93771,"stationId":"PL_B_39_B_5"},{"lng":26.00017,"geohash":"sxfrxsssxg","stationName":"Zimbrului","lat":44.93762,"stationId":"PL_B_39_B_6"},{"lng":26.00617,"geohash":"sxfrxu9j79","stationName":"Popa Farcas","lat":44.93774,"stationId":"PL_B_39_B_7"},{"lng":26.01231,"geohash":"sxfrxuv9dc","stationName":"Logofat Tautu","lat":44.93847,"stationId":"PL_B_39_B_8"},{"lng":26.0215125678,"geohash":"sxfx8huq11","stationName":"Tache Ionescu","lat":44.9392424424,"stationId":"PL_B_39_B_9"},{"lng":26.01969,"geohash":"sxfx8jdzn9","stationName":"Hale Catedrala","lat":44.94353,"stationId":"PL_B_39_B_10"}],"routeWayPoints":[],"routeWayPointsEncoded":"cuaqGmfr}C@C}D}IiAyBcA{BcA}B_A_CmBsDo@{@iB_BmAm@mA_@g@Ic@MSOWYBSI_@GIMIU?OLgBxBqPhN}u@nn@wFxFIAUDGHY`Am@bAcAvAcBnCce@|_AsN|X}@~AgA|AoAtA}AvA}@n@cCnAeBn@aB^gBX]Ow@e@YWU[a@_Ag@iBw@q@m@u@_@iAU_B\\uICAdCep@r@{IPsET_EP_LC[h@eOBuBLqA`@yFbBqe@@g@Kk@~Aeg@BkBIim@E{@AyB{Bw[O{CCgE?_IDwFQ}H?aEMuKE{@MsAKo@IcAIMq@EKC?a@KcAgC}GmAyCm@t@kAvBq@|AaHhSU\\m@r@[X]RS@]GkAaA@q@T}@`@oA","routeName":"B_39_B"}},{"deviceType":"B","onlyOneRoute":false,"color":"8f4099","routeForward":{"duration":"00:14","name":"Hale Catedrala - Bereasca","moveDirection":"F","stations":[{"lng":26.01969,"geohash":"sxfx8jdzn9","stationName":"Hale Catedrala","lat":44.94353,"stationId":"PL_B_40_F_0"},{"lng":26.02913,"geohash":"sxfx8m9ud9","stationName":"Sf Vineri","lat":44.9431,"stationId":"PL_B_40_F_1"},{"lng":26.0354,"geohash":"sxfx8qn7sz","stationName":"Parc Obor","lat":44.94571,"stationId":"PL_B_40_F_2"},{"lng":26.04333,"geohash":"sxfx8wupv8","stationName":"Atlas","lat":44.95052,"stationId":"PL_B_40_F_3"},{"lng":26.04661,"geohash":"sxfx8wy840","stationName":"Petros","lat":44.94919,"stationId":"PL_B_40_F_4"},{"lng":26.04834,"geohash":"sxfx8wrz66","stationName":"Pelinului","lat":44.9477,"stationId":"PL_B_40_F_5"},{"lng":26.04774,"geohash":"sxfx8wzmhk","stationName":"Luminisului","lat":44.95007,"stationId":"PL_B_40_F_6"},{"lng":26.05001,"geohash":"sxfx8zcn94","stationName":"Strand Bucov","lat":44.95581,"stationId":"PL_B_40_F_7"},{"lng":26.0542,"geohash":"sxfxbbkndu","stationName":"Aldini","lat":44.95857,"stationId":"PL_B_40_F_8"},{"lng":26.06348,"geohash":"sxfxc44u7p","stationName":"Intrare Bucov","lat":44.96781,"stationId":"PL_B_40_F_9"},{"lng":26.05981,"geohash":"sxfxc525tx","stationName":"Parc Bucov","lat":44.97455,"stationId":"PL_B_40_F_10"}],"routeWayPoints":[],"routeWayPointsEncoded":"y`iqGe_y}CAAd@uAZk@vEkN@UGUqGsMxAqGRo@nBmCx@aAsCqBg@QDiAG_FEUaAoEyA_FwBaIq@yASWqEuB_@]Qe@CYEOUMKBs@k@iZme@RSNYjKe^zFw@PKoEeIuAnBkDtEuAdBiBhB}FzHeAbBGEO@ONARBNDFk@dA","routeName":"B_40_F"},"name":"Hale Catedrala - Bereasca","lineNumber":"40","routeBackward":{"duration":"00:14","name":"Bereasca - Hale Catedrala","moveDirection":"B","stations":[{"lng":26.04401,"geohash":"sxfx8xkdj2","stationName":"Complex Bereasca","lat":44.95228,"stationId":"PL_B_40_B_0"},{"lng":26.04424,"geohash":"sxfx8xkvdf","stationName":"Stanjeneilor","lat":44.95289,"stationId":"PL_B_40_B_1"},{"lng":26.04002,"geohash":"sxfxb81b2r","stationName":"Cimitir","lat":44.95614,"stationId":"PL_B_40_B_2"},{"lng":26.0392768381,"geohash":"sxfx8x9jr5","stationName":"Arborilor","lat":44.9542262811,"stationId":"PL_B_40_B_3"},{"lng":26.04114,"geohash":"sxfx8x4xde","stationName":"Leandrului","lat":44.95187,"stationId":"PL_B_40_B_4"},{"lng":26.03305,"geohash":"sxfx8qhxnp","stationName":"AFI Palace","lat":44.94631,"stationId":"PL_B_40_B_5"},{"lng":26.02857,"geohash":"sxfx8m9mmt","stationName":"Sf Vineri","lat":44.94325,"stationId":"PL_B_40_B_6"},{"lng":26.01969,"geohash":"sxfx8jdzn9","stationName":"Hale Catedrala","lat":44.94353,"stationId":"PL_B_40_B_7"}],"routeWayPoints":[],"routeWayPointsEncoded":"szjqG}v}}Cs@jA}TxZQh@j@AlDQtLo@`@OfKmNn@gAhZle@`@dA?XLX^JTPL`@HdAH\\LJNDLANKLa@NIn@KpAn@RVp@xAvB`IxA~EfAdFF~EMzD@`@n@lCW\\[|@wAbGQXgD|AmBt@_@FPvJ@zDCbBeAxGQv@KN[tBbHD`@HN?VSZc@p@_C","routeName":"B_40_B"}},{"deviceType":"B","onlyOneRoute":false,"color":"8f4099","routeForward":{"duration":"00:35","name":"Catedrala - Bucov","moveDirection":"F","stations":[{"lng":26.01969,"geohash":"sxfx8jdzn9","stationName":"Hale Catedrala","lat":44.94353,"stationId":"PL_B_40B_F_0"},{"lng":26.02913,"geohash":"sxfx8m9ud9","stationName":"Sf Vineri","lat":44.9431,"stationId":"PL_B_40B_F_1"},{"lng":26.0354,"geohash":"sxfx8qn7sz","stationName":"Parc Obor","lat":44.94571,"stationId":"PL_B_40B_F_2"},{"lng":26.04296,"geohash":"sxfx8x5usu","stationName":"Complex Bereasca","lat":44.95136,"stationId":"PL_B_40B_F_3"},{"lng":26.05001,"geohash":"sxfx8zcn94","stationName":"Strand Bucov","lat":44.95581,"stationId":"PL_B_40B_F_4"},{"lng":26.0542,"geohash":"sxfxbbkndu","stationName":"Aldini","lat":44.95857,"stationId":"PL_B_40B_F_5"},{"lng":26.06348,"geohash":"sxfxc44u7p","stationName":"Intrare Bucov","lat":44.96781,"stationId":"PL_B_40B_F_6"},{"lng":26.05981,"geohash":"sxfxc525tx","stationName":"Parc Bucov","lat":44.97455,"stationId":"PL_B_40B_F_7"}],"routeWayPoints":[],"routeWayPointsEncoded":"a`iqGa~x}CtA_z@iOef@ib@gn@yZak@gPeYwx@_y@ci@|U","routeName":"B_40B_F"},"name":"Hale Catedrala - Parc Constantin Stere","lineNumber":"40B","routeBackward":{"duration":"00:30","name":"Bucov - Catedrala","moveDirection":"B","stations":[{"lng":26.05981,"geohash":"sxfxc525tx","stationName":"Parc Bucov","lat":44.97455,"stationId":"PL_B_40B_B_0"},{"lng":26.04976,"geohash":"sxfx8zbz76","stationName":"Strand Bucov","lat":44.95594,"stationId":"PL_B_40B_B_1"},{"lng":26.04401,"geohash":"sxfx8xkdj2","stationName":"Complex Bereasca","lat":44.95228,"stationId":"PL_B_40B_B_2"},{"lng":26.03524,"geohash":"sxfx8qnr3j","stationName":"Camine Obor","lat":44.94634,"stationId":"PL_B_40B_B_3"},{"lng":26.02857,"geohash":"sxfx8m9mmt","stationName":"Sf Vineri","lat":44.94325,"stationId":"PL_B_40B_B_4"},{"lng":26.01969,"geohash":"sxfx8jdzn9","stationName":"Hale Catedrala","lat":44.94353,"stationId":"PL_B_40B_B_5"}],"routeWayPoints":[],"routeWayPointsEncoded":"}aoqGyx`~ChsBx}@zU|b@bd@xu@hRth@w@nv@","routeName":"B_40B_B"}},{"deviceType":"B","onlyOneRoute":false,"color":"8f4099","routeForward":{"duration":"00:30","name":"Podul Inalt - Comat","moveDirection":"F","stations":[{"lng":25.98124,"geohash":"sxfrxhyung","stationName":"Pod Inalt","lat":44.93891,"stationId":"PL_B_42_F_0"},{"lng":25.98458,"geohash":"sxfrxkc6hd","stationName":"Eremia Grigorescu","lat":44.93856,"stationId":"PL_B_42_F_1"},{"lng":25.98831,"geohash":"sxfrxku05x","stationName":"Biserica Inaltarea Domnului","lat":44.93824,"stationId":"PL_B_42_F_2"},{"lng":25.98968,"geohash":"sxfrxkt157","stationName":"Biserica Inaltarii Domnului","lat":44.93702,"stationId":"PL_B_42_F_3"},{"lng":25.98896,"geohash":"sxfrx7swfd","stationName":"Bloc 39","lat":44.93251,"stationId":"PL_B_42_F_4"},{"lng":25.9929,"geohash":"sxfrx6zrn2","stationName":"Bariera Marasesti","lat":44.92842,"stationId":"PL_B_42_F_5"},{"lng":25.99984,"geohash":"sxfrxekw0p","stationName":"Palatul Copiilor","lat":44.93103,"stationId":"PL_B_42_F_6"},{"lng":26.01136,"geohash":"sxfrxfsvss","stationName":"Cimitir Bolovani","lat":44.92681,"stationId":"PL_B_42_F_7"},{"lng":26.01388,"geohash":"sxfrxfw8xr","stationName":"Campiei","lat":44.92597,"stationId":"PL_B_42_F_8"},{"lng":26.02151,"geohash":"sxfx84kk10","stationName":"UZUC","lat":44.92516,"stationId":"PL_B_42_F_9"},{"lng":26.02947,"geohash":"sxfx866p4e","stationName":"Gara de Sud","lat":44.92569,"stationId":"PL_B_42_F_10"},{"lng":26.0342718361,"geohash":"sxfx83te6w","stationName":"Rulmenti Grei","lat":44.9209425423,"stationId":"PL_B_42_F_11"},{"lng":26.03397,"geohash":"sxfx82vq56","stationName":"Bariera Bucuresti","lat":44.91727,"stationId":"PL_B_42_F_12"},{"lng":26.02652,"geohash":"sxfx80xgjg","stationName":"Rafinaria Astra","lat":44.91539,"stationId":"PL_B_42_F_13"},{"lng":26.0229,"geohash":"sxfx80mkct","stationName":"Umerva","lat":44.91433,"stationId":"PL_B_42_F_14"},{"lng":26.01716,"geohash":"sxfx80115z","stationName":"COMAT","lat":44.91232,"stationId":"PL_B_42_F_15"}],"routeWayPoints":[],"routeWayPointsEncoded":"kchqGiqq}C@cBLqA`@yFvAqa@Hi@R]^Kzc@xDlA?x@Cv@SpBo@~Ay@~AkAzA{Af@s@nAyBp@}AD@NGFQ?UGQMI}Iq[{EgQi@cCqAyHwA{JUcCJgBAgAQi@y@eDt@e@|JeKjD_EjBkBpFqDp@]jC}@pDgA[oY~Cw\\JaB@gGE]K[gAoBu@}A[{@Ie@@c@JWRKdAMd@MxBcAiCcR{@gHqCn@SWUa@mAmLCeADy@Ls@Pc@b@o@r@c@p@WpCy@rBc@pAKfEQrL_@hI]pGi@nBEb@BJFL?JEV`B`@lB|Mpx@fD`Rh@lDXfAbBnEbEhM`C|I","routeName":"B_42_F"},"name":"Podul Inalt - Comat","lineNumber":"42","routeBackward":{"duration":"00:35","name":"Comat - Podul Inalt","moveDirection":"B","stations":[{"lng":26.01716,"geohash":"sxfx2pcpgf","stationName":"COMAT","lat":44.91208,"stationId":"PL_B_42_B_0"},{"lng":26.02384,"geohash":"sxfx80mvx2","stationName":"Umerva","lat":44.91443,"stationId":"PL_B_42_B_1"},{"lng":26.02666,"geohash":"sxfx828410","stationName":"Rafinaria Astra","lat":44.9152,"stationId":"PL_B_42_B_2"},{"lng":26.03497,"geohash":"sxfx83n44f","stationName":"Bariera Bucuresti","lat":44.91796,"stationId":"PL_B_42_B_3"},{"lng":26.0343678592,"geohash":"sxfx83txhe","stationName":"Rulmenti Grei","lat":44.9215692826,"stationId":"PL_B_42_B_4"},{"lng":26.02903,"geohash":"sxfx869b82","stationName":"BIG","lat":44.92593,"stationId":"PL_B_42_B_5"},{"lng":26.0154105423,"geohash":"sxfrxfrv54","stationName":"Stindardului","lat":44.9253409752,"stationId":"PL_B_42_B_6"},{"lng":25.99925,"geohash":"sxfrxekn6k","stationName":"Scoala 20","lat":44.93106,"stationId":"PL_B_42_B_7"},{"lng":25.9929,"geohash":"sxfrx7p2qm","stationName":"Bariera Mararesti","lat":44.92866,"stationId":"PL_B_42_B_8"},{"lng":25.98941,"geohash":"sxfrx7kyjp","stationName":"Lamaita","lat":44.93103,"stationId":"PL_B_42_B_9"},{"lng":25.98988,"geohash":"sxfrxkmm2h","stationName":"Biserica Inaltarea Domnului","lat":44.93638,"stationId":"PL_B_42_B_10"},{"lng":25.98893,"geohash":"sxfrxku93b","stationName":"Biserica Inaltarea Domnului","lat":44.93842,"stationId":"PL_B_42_B_11"},{"lng":25.98138,"geohash":"sxfrxhzhf4","stationName":"Pod Inalt","lat":44.93903,"stationId":"PL_B_42_B_12"}],"routeWayPoints":[],"routeWayPointsEncoded":"gwbqGiax}CaC}IkCcIiDwJu@sEgDaRsJal@iBoKg@cCQkAJW?SCQIMKCM@o@f@mBd@qGh@e]nAqAJsBb@}DnAc@RUPk@z@Sr@Gn@AbAHnAr@rGTdCAb@I\\?b@LZTFrD{@bA~H|C`U\\vBfBdHxAfJnBvO^~FiIn@GFmAtDeAYwDoCZnY}HdCq@\\qFpD{C|C{BlC}JdKu@d@f@rF|@tIhAtHAl@Dz@h@tDpAxFxN~h@HLX~@CDAXaBfDu@hAmArAcAz@sA|@_Bp@}A\\a@?{@Jy@BiCI_VmBmKaAuBtn@","routeName":"B_42_B"}},{"deviceType":"B","onlyOneRoute":false,"color":"8f4099","routeForward":{"duration":"00:34","name":"Malu Rosu - Gara de Sud","moveDirection":"F","stations":[{"lng":25.99448,"geohash":"sxfrxw2d7m","stationName":"Malu Rosu","lat":44.94686,"stationId":"PL_B_44_F_0"},{"lng":25.99344,"geohash":"sxfrxmxg54","stationName":"Carol Davila","lat":44.94285,"stationId":"PL_B_44_F_1"},{"lng":25.9981896876,"geohash":"sxfrxt7q3w","stationName":"Aviatorilor","lat":44.942054607,"stationId":"PL_B_44_F_2"},{"lng":26.00325,"geohash":"sxfrxtqbxs","stationName":"Nicolae Titulescu","lat":44.94106,"stationId":"PL_B_44_F_3"},{"lng":26.00911,"geohash":"sxfrxv5k8p","stationName":"Traian","lat":44.94039,"stationId":"PL_B_44_F_4"},{"lng":26.0148048995,"geohash":"sxfrxvx2sb","stationName":"Scoala 4","lat":44.9424119083,"stationId":"PL_B_44_F_5"},{"lng":26.02051,"geohash":"sxfx8j7t3v","stationName":"Galeriile Comerciale","lat":44.94188,"stationId":"PL_B_44_F_6"},{"lng":26.02515,"geohash":"sxfx8hybjc","stationName":"PTTR","lat":44.93821,"stationId":"PL_B_44_F_7"},{"lng":26.02678,"geohash":"sxfx87bhgu","stationName":"Ana Ipatescu","lat":44.93355,"stationId":"PL_B_44_F_8"},{"lng":26.0278323887,"geohash":"sxfx872fk2","stationName":"13 Decembrie","lat":44.9303520435,"stationId":"PL_B_44_F_9"},{"lng":26.02903,"geohash":"sxfx869b82","stationName":"BIG","lat":44.92593,"stationId":"PL_B_44_F_10"}],"routeWayPoints":[],"routeWayPointsEncoded":"gsiqGy_t}CA@x@h@rDlB|LtFvAyM`Gyk@LeALe@r@{INwAxAuI\\aC@q@GyGEo@s@}GUaAsGiUuBaGm@wA_AiBaAcBb@y@TYp@k@RKPOJSFYB[Aq@FaBHg@T}@bGcQn@}A|AyCl@u@dFcFVAv@c@\\Mr@Ev@OvAi@f@Md@UfBc@lMyChFgA|a@kJ`Cg@tAJ`B_@","routeName":"B_44_F"},"name":"Malu Rosu - Gara de Sud","lineNumber":"44","routeBackward":{"duration":"00:34","name":"Gara de Sud - Malu Rosu","moveDirection":"B","stations":[{"lng":26.02968,"geohash":"sxfx86d1x8","stationName":"Coreco Sud","lat":44.9261,"stationId":"PL_B_44_B_0"},{"lng":26.028068423,"geohash":"sxfx87349c","stationName":"13 Decembrie","lat":44.9303968578,"stationId":"PL_B_44_B_1"},{"lng":26.02702,"geohash":"sxfx87bm1d","stationName":"Ana Ipatescu","lat":44.93358,"stationId":"PL_B_44_B_2"},{"lng":26.02515,"geohash":"sxfx8hybjc","stationName":"PTTR","lat":44.93821,"stationId":"PL_B_44_B_3"},{"lng":26.0199,"geohash":"sxfx8jepg9","stationName":"Hale Coreco","lat":44.94366,"stationId":"PL_B_44_B_4"},{"lng":26.01237,"geohash":"sxfrxuvehn","stationName":"Logofat Tautu","lat":44.93875,"stationId":"PL_B_44_B_5"},{"lng":26.00699,"geohash":"sxfrxu9wyy","stationName":"Popa Farcas","lat":44.93802,"stationId":"PL_B_44_B_6"},{"lng":26.00382,"geohash":"sxfrxtpmsb","stationName":"Nicolae TItulescu","lat":44.94052,"stationId":"PL_B_44_B_7"},{"lng":25.99735,"geohash":"sxfrxt6xyp","stationName":"Aleea Profesorilor","lat":44.94232,"stationId":"PL_B_44_B_8"},{"lng":25.99284,"geohash":"sxfrxmxrt4","stationName":"Ofelia","lat":44.94362,"stationId":"PL_B_44_B_9"},{"lng":25.99448,"geohash":"sxfrxw2d7m","stationName":"Malu Rosu","lat":44.94686,"stationId":"PL_B_44_B_10"}],"routeWayPoints":[],"routeWayPointsEncoded":"wseqGs{z}CCI{@NGAK@KDIJIRY^_@Zwa@fJqFhAuTfFk@@_Ch@oBXe@Tm@^OZqDnDgAlA_AvAw@|Ao@|AaFzNoD}CGPU\\oAzDMj@?^BVJ\\d@h@T^L`@Bf@FVJR^RX?XKP@j@Ld@VdCtBd@p@Vh@v@~BzGcJDDLBjBnObAfLd@fGNl@H`AN|CnBtXJvHGTSd@[`@[TQH}@RyBNkC?cAGkD_@?Ga@nFY`BqHvs@_@xCOZMNMF[B[EgJeEmDiB{@k@a@P","routeName":"B_44_B"}},{"deviceType":"B","onlyOneRoute":false,"color":"8f4099","routeForward":{"duration":"00:26","name":"Malu Rosu - Uztel","moveDirection":"F","stations":[{"lng":25.99448,"geohash":"sxfrxw2d7m","stationName":"Malu Rosu","lat":44.94686,"stationId":"PL_B_44B_F_0"},{"lng":25.99344,"geohash":"sxfrxmxg54","stationName":"Carol Davila","lat":44.94285,"stationId":"PL_B_44B_F_1"},{"lng":25.9981896876,"geohash":"sxfrxt7q3w","stationName":"Aviatorilor","lat":44.942054607,"stationId":"PL_B_44B_F_2"},{"lng":26.00325,"geohash":"sxfrxtqbxs","stationName":"Nicolae Titulescu","lat":44.94106,"stationId":"PL_B_44B_F_3"},{"lng":26.00911,"geohash":"sxfrxv5k8p","stationName":"Traian","lat":44.94039,"stationId":"PL_B_44B_F_4"},{"lng":26.0148048995,"geohash":"sxfrxvx2sb","stationName":"Scoala 4","lat":44.9424119083,"stationId":"PL_B_44B_F_5"},{"lng":26.0432813762,"geohash":"sxfx8su1s6","stationName":"Gradinari","lat":44.9384750157,"stationId":"PL_B_44B_F_6"},{"lng":26.05102,"geohash":"sxfx8ucv8b","stationName":"Fero","lat":44.93915,"stationId":"PL_B_44B_F_7"},{"lng":26.05756,"geohash":"sxfx8vnw3h","stationName":"Dacia","lat":44.94067,"stationId":"PL_B_44B_F_8"},{"lng":26.07096,"geohash":"sxfx9m2q33","stationName":"Petrotel","lat":44.94203,"stationId":"PL_B_44B_F_9"},{"lng":26.08161,"geohash":"sxfx9t801t","stationName":"Garsoniere","lat":44.94235,"stationId":"PL_B_44B_F_10"},{"lng":26.08976,"geohash":"sxfx9tmzxq","stationName":"Uztel debarcare","lat":44.94227,"stationId":"PL_B_44B_F_11"}],"routeWayPoints":[],"routeWayPointsEncoded":"ksiqGy_t}Cz@j@rDlB|LtFnI{x@V}BLe@r@{INwAxAuI\\aC@q@GyGQyBc@cEKi@yAsFgDiLm@qB{AmEm@wAm@mA_BuCl@eAVYjA{@JSFYB[Aq@FaBHg@T}@rGeRp@}AjAwB`BiBpDoDVAh@[j@UoAsEc@uADsLIiDHg@pCmD`@mA\\aBXiCNs@w@BaCWSFsA~@q@t@VsAHaABwGCiD_AuTGqB@cABk@n@_Ff@kBhB}EDFEG\\aAr@yCLkAHwBFcJEsEI_AWcAa@cCaBsIwAeHiDaPQsAQiC_Cok@QmBwAaJc@sEIuBScR_@sWc@qi@FmTF_c@","routeName":"B_44B_F"},"name":"Malu Rosu - Uztel","lineNumber":"44B","routeBackward":{"duration":"00:26","name":"Uztel - Malu Rosu","moveDirection":"B","stations":[{"lng":26.09056,"geohash":"sxfx9tw8fj","stationName":"Uztel imbarcare","lat":44.94248,"stationId":"PL_B_44B_B_0"},{"lng":26.08186,"geohash":"sxfx9t80zr","stationName":"Garsoniere","lat":44.94249,"stationId":"PL_B_44B_B_1"},{"lng":26.07063,"geohash":"sxfx9m2p1t","stationName":"Petrotel","lat":44.94218,"stationId":"PL_B_44B_B_2"},{"lng":26.05752,"geohash":"sxfx8vnx25","stationName":"Dacia","lat":44.94084,"stationId":"PL_B_44B_B_3"},{"lng":26.05186,"geohash":"sxfx8v42k6","stationName":"Fero","lat":44.93963,"stationId":"PL_B_44B_B_4"},{"lng":26.04545,"geohash":"sxfx8sv9qy","stationName":"Gradinari","lat":44.93845,"stationId":"PL_B_44B_B_5"},{"lng":26.01237,"geohash":"sxfrxuvehn","stationName":"Logofat Tautu","lat":44.93875,"stationId":"PL_B_44B_B_6"},{"lng":26.00699,"geohash":"sxfrxu9wyy","stationName":"Popa Farcas","lat":44.93802,"stationId":"PL_B_44B_B_7"},{"lng":26.00382,"geohash":"sxfrxtpmsb","stationName":"Nicolae TItulescu","lat":44.94052,"stationId":"PL_B_44B_B_8"},{"lng":25.99735,"geohash":"sxfrxt6xyp","stationName":"Aleea Profesorilor","lat":44.94232,"stationId":"PL_B_44B_B_9"},{"lng":25.99284,"geohash":"sxfrxmxrt4","stationName":"Ofelia","lat":44.94362,"stationId":"PL_B_44B_B_10"},{"lng":25.99448,"geohash":"sxfrxw2d7m","stationName":"Malu Rosu","lat":44.94686,"stationId":"PL_B_44B_B_11"}],"routeWayPoints":[],"routeWayPointsEncoded":"wxhqGkxf~CCAEx^GvPAbK^xf@v@nm@HtBRdCfBnLPlBhCdn@XfC|Gd\\fBxJB`CBzPIxBSxAUfAm@nByBxFY|ASrBO~EfAjYBdC?fDCnBI`AMt@W|@e@|BGd@Ch@HhDFzALdAHxC?f@KJApCtB|Cj@hBC\\n@jCaAl@OZe@`@_E`EfEnKLf@JbA?`@kAk@]Ma@Gc@@a@Pa@n@lCpLL~@FrAEh@GXE@GJAPBLRHjBnOhAlM^`FNl@NzCzBv[@xBDz@@bBQl@SZa@`@]P}@Ro@B}ALiCC}AM_CW?Ge@fGOr@M`AiHjr@_@xCOZMNMF[B[EqHeDgCoAiDqB","routeName":"B_44B_B"}},{"deviceType":"B","onlyOneRoute":false,"color":"8f4099","routeForward":{"duration":"00:30","name":"Malu Rosu - Comat","moveDirection":"F","stations":[{"lng":25.99448,"geohash":"sxfrxw2d7m","stationName":"Malu Rosu","lat":44.94686,"stationId":"PL_B_48_F_0"},{"lng":25.99344,"geohash":"sxfrxmxg54","stationName":"Carol Davila","lat":44.94285,"stationId":"PL_B_48_F_1"},{"lng":25.9981896876,"geohash":"sxfrxt7q3w","stationName":"Aviatorilor","lat":44.942054607,"stationId":"PL_B_48_F_2"},{"lng":26.00325,"geohash":"sxfrxtqbxs","stationName":"Nicolae Titulescu","lat":44.94106,"stationId":"PL_B_48_F_3"},{"lng":26.00617,"geohash":"sxfrxu9j79","stationName":"Popa Farcas","lat":44.93774,"stationId":"PL_B_48_F_4"},{"lng":26.01231,"geohash":"sxfrxuv9dc","stationName":"Logofat Tautu","lat":44.93847,"stationId":"PL_B_48_F_5"},{"lng":26.0342718361,"geohash":"sxfx83te6w","stationName":"Rulmenti Grei","lat":44.9209425423,"stationId":"PL_B_48_F_6"},{"lng":26.02652,"geohash":"sxfx80xgjg","stationName":"Rafinaria Astra","lat":44.91539,"stationId":"PL_B_48_F_7"},{"lng":26.0229,"geohash":"sxfx80mkct","stationName":"Umerva","lat":44.91433,"stationId":"PL_B_48_F_8"},{"lng":26.01716,"geohash":"sxfx80115z","stationName":"COMAT","lat":44.91232,"stationId":"PL_B_48_F_9"}],"routeWayPoints":[],"routeWayPointsEncoded":"ksiqGs_t}C?Ez@j@rDlB|LtFvAyMdDi\\|AyNLaANs@d@gG?F`D\\lAHjC?dCSp@Ob@Aj@m@RO@}@AcBE{@?}Ai@sIiA{OO}CIaAEyIFeLQsH?kEOsLM_BUaBA_@GOc@C]G?a@KcAyCcI{@sBdFcFVAfAk@ZIZ?TC|@UdAa@f@Md@UtTgFpFiAvKgC~T_FfAJ\\CRKFMDc@K_@g@o@KSgAaKIoA@cAFo@Rs@j@{@TQb@S|DoArBc@pAKfEQ|K]jI]dHk@nBEb@BJFL?JEh@`DVfAbMpu@xDfTt@rEpBpFbEhM`C|I","routeName":"B_48_F"},"name":"Malu Rosu - Comat","lineNumber":"48","routeBackward":{"duration":"00:30","name":"Comat - Malu Rosu","moveDirection":"B","stations":[{"lng":26.01716,"geohash":"sxfx2pcpgf","stationName":"COMAT","lat":44.91208,"stationId":"PL_B_48_B_0"},{"lng":26.02384,"geohash":"sxfx80mvx2","stationName":"Umerva","lat":44.91443,"stationId":"PL_B_48_B_1"},{"lng":26.02666,"geohash":"sxfx828410","stationName":"Rafinaria Astra","lat":44.9152,"stationId":"PL_B_48_B_2"},{"lng":26.03497,"geohash":"sxfx83n44f","stationName":"Bariera Bucuresti","lat":44.91796,"stationId":"PL_B_48_B_3"},{"lng":26.0343678592,"geohash":"sxfx83txhe","stationName":"Rulmenti Grei","lat":44.9215692826,"stationId":"PL_B_48_B_4"},{"lng":26.01237,"geohash":"sxfrxuvehn","stationName":"Logofat Tautu","lat":44.93875,"stationId":"PL_B_48_B_5"},{"lng":26.00699,"geohash":"sxfrxu9wyy","stationName":"Popa Farcas","lat":44.93802,"stationId":"PL_B_48_B_6"},{"lng":26.00382,"geohash":"sxfrxtpmsb","stationName":"Nicolae TItulescu","lat":44.94052,"stationId":"PL_B_48_B_7"},{"lng":25.99735,"geohash":"sxfrxt6xyp","stationName":"Aleea Profesorilor","lat":44.94232,"stationId":"PL_B_48_B_8"},{"lng":25.99284,"geohash":"sxfrxmxrt4","stationName":"Ofelia","lat":44.94362,"stationId":"PL_B_48_B_9"},{"lng":25.99448,"geohash":"sxfrxw2d7m","stationName":"Malu Rosu","lat":44.94686,"stationId":"PL_B_48_B_10"}],"routeWayPoints":[],"routeWayPointsEncoded":"gwbqGmax}CaCyIcEiMcBoEYgAi@mDgDaRuMww@WgAi@aDHO@Q?SGOKIM?u@h@mBd@qGh@e]nAqAJsBb@qCx@q@Vs@b@c@n@Qb@Mr@Ex@BdAlAlL?h@Eb@Q\\[\\SN{Q~DcSrEiFfAuP|Dk@@_Ch@oBXe@Tm@^OZeFbFfEnKLf@JbA?`@}Au@[Iu@?a@Pa@n@lCpLPzA@nAKj@IFEN@NFJLBjBnOhAlM^`FNl@NzCzBv[HxGQl@SZa@`@]P}@Ro@By@HiCBkAIuD_@?Ga@nFY`BoB|QyDt_@a@nDGTSZMLODi@AmJiEmDiB{@i@","routeName":"B_48_B"}},{"deviceType":"B","onlyOneRoute":true,"color":"8f4099","routeForward":{"duration":"00:30","name":"Domnisori - Uztel","moveDirection":"F","stations":[{"lng":26.00317,"geohash":"sxfrxeqftz","stationName":"Domnisori","lat":44.93043,"stationId":"PL_B_52_F_0"},{"lng":25.99644,"geohash":"sxfrxddp8b","stationName":"Spitalul CFR","lat":44.92713,"stationId":"PL_B_52_F_1"},{"lng":25.9953562019,"geohash":"sxfrxd3jxe","stationName":"Gara de Vest imbarcare","lat":44.9254306116,"stationId":"PL_B_52_F_2"},{"lng":25.99257,"geohash":"sxfrx6zhqu","stationName":"Bariera Mararesti","lat":44.92797,"stationId":"PL_B_52_F_3"},{"lng":25.98941,"geohash":"sxfrx7kyjp","stationName":"Lamaita","lat":44.93103,"stationId":"PL_B_52_F_4"},{"lng":25.98988,"geohash":"sxfrxkmm2h","stationName":"Biserica Inaltarea Domnului","lat":44.93638,"stationId":"PL_B_52_F_5"},{"lng":25.99574,"geohash":"sxfrxs9t0s","stationName":"Enachita Vacarescu","lat":44.93771,"stationId":"PL_B_52_F_6"},{"lng":26.00017,"geohash":"sxfrxsssxg","stationName":"Zimbrului","lat":44.93762,"stationId":"PL_B_52_F_7"},{"lng":26.00617,"geohash":"sxfrxu9j79","stationName":"Popa Farcas","lat":44.93774,"stationId":"PL_B_52_F_8"},{"lng":26.01231,"geohash":"sxfrxuv9dc","stationName":"Logofat Tautu","lat":44.93847,"stationId":"PL_B_52_F_9"},{"lng":26.0432813762,"geohash":"sxfx8su1s6","stationName":"Gradinari","lat":44.9384750157,"stationId":"PL_B_52_F_10"},{"lng":26.05102,"geohash":"sxfx8ucv8b","stationName":"Fero","lat":44.93915,"stationId":"PL_B_52_F_11"},{"lng":26.05756,"geohash":"sxfx8vnw3h","stationName":"Dacia","lat":44.94067,"stationId":"PL_B_52_F_12"},{"lng":26.07096,"geohash":"sxfx9m2q33","stationName":"Petrotel","lat":44.94203,"stationId":"PL_B_52_F_13"},{"lng":26.08161,"geohash":"sxfx9t801t","stationName":"Garsoniere","lat":44.94235,"stationId":"PL_B_52_F_14"},{"lng":26.08976,"geohash":"sxfx9tmzxq","stationName":"Uztel debarcare","lat":44.94227,"stationId":"PL_B_52_F_15"}],"routeWayPoints":[],"routeWayPointsEncoded":"cnfqGgwu}CC@jAlBlF`LtBlFfA`D|AhGxA`Ed@x@dBzBb@HvCdDt@gBaCkAo@Uc@Ks@`AcD`H_E~HUJGV?J_ApB}@|AaAlAaA`AoA~@uAv@}Ah@u@La@?{@Jy@BiCIkK}@}Fc@mK_Aa@[Oa@OoA`B_i@Ikm@E{@AyBE}@kBuWO}CIaAEyID}HAkEIuBCcB?aEMuKE{@MsAKo@IcAIMg@CUE?a@KcAMg@gEoKdFcFVAh@[j@UsA}E_@kADsLIiDHg@pCmDp@wBRmARsBNs@w@BuBU[BiBpA_@d@Pw@J}@DiA@uHEuB}@aTGqB@cABk@n@_Ff@kBfC_Hr@yCLkAHwBFcJEcEIoA[sAwC{OiFsVGg@Q_BiCen@QmBwAaJc@sEIuBGyGu@cj@Yka@Nix@","routeName":"B_52_F"},"name":"Domnisori - Uztel","lineNumber":"52"},{"deviceType":"B","onlyOneRoute":false,"color":"8f4099","routeForward":{"duration":"00:16","name":"Bloc 39 - Gara de Sud","moveDirection":"F","stations":[{"lng":25.98896,"geohash":"sxfrx7swfd","stationName":"Bloc 39","lat":44.93251,"stationId":"PL_B_53_F_0"},{"lng":25.9929,"geohash":"sxfrx6zrn2","stationName":"Bariera Marasesti","lat":44.92842,"stationId":"PL_B_53_F_1"},{"lng":25.99984,"geohash":"sxfrxekw0p","stationName":"Palatul Copiilor","lat":44.93103,"stationId":"PL_B_53_F_2"},{"lng":26.01136,"geohash":"sxfrxfsvss","stationName":"Cimitir Bolovani","lat":44.92681,"stationId":"PL_B_53_F_3"},{"lng":26.01388,"geohash":"sxfrxfw8xr","stationName":"Campiei","lat":44.92597,"stationId":"PL_B_53_F_4"},{"lng":26.02151,"geohash":"sxfx84kk10","stationName":"UZUC","lat":44.92516,"stationId":"PL_B_53_F_5"},{"lng":26.02947,"geohash":"sxfx866p4e","stationName":"Gara de Sud","lat":44.92569,"stationId":"PL_B_53_F_6"}],"routeWayPoints":[],"routeWayPointsEncoded":"uyfqGi~r}CAAn@Dv@@v@Ap@Mx@SpBs@vAy@~AqAzAaBh@w@h@aA`AwBPCHMBUESMME?qN{g@eA}Di@cCqAyHwA{JUcCJgBAgAu@mC@[Hm@R]|JeKpB_CxBaCj@i@pFqDp@]|HeC[oYzC_\\HiAFcCAcEG]wBaEe@kAKe@?c@FYPOxAS^MpB_A}D{Y","routeName":"B_53_F"},"name":"Bloc 39 - Gara de Sud","lineNumber":"53","routeBackward":{"duration":"00:16","name":"Gara de Sud - Bloc 39","moveDirection":"B","stations":[{"lng":26.02968,"geohash":"sxfx86d1x8","stationName":"Coreco Sud","lat":44.9261,"stationId":"PL_B_53_B_0"},{"lng":26.0154105423,"geohash":"sxfrxfrv54","stationName":"Stindardului","lat":44.9253409752,"stationId":"PL_B_53_B_1"},{"lng":25.99925,"geohash":"sxfrxekn6k","stationName":"Scoala 20","lat":44.93106,"stationId":"PL_B_53_B_2"},{"lng":25.9929,"geohash":"sxfrx7p2qm","stationName":"Bariera Mararesti","lat":44.92866,"stationId":"PL_B_53_B_3"},{"lng":25.98941,"geohash":"sxfrx7kyjp","stationName":"Lamaita","lat":44.93103,"stationId":"PL_B_53_B_4"},{"lng":25.98896,"geohash":"sxfrx7swfd","stationName":"Bloc 39","lat":44.93251,"stationId":"PL_B_53_B_5"}],"routeWayPoints":[],"routeWayPointsEncoded":"cseqGi|z}C?BoAXKCWFIJENAPF`@FJJDN@lD{@`F`_@\\vBfBdHxAfJnBvO^~FiIn@GFmAtDeAYwDoCZnYqDfAkC|@q@\\qFpD{C|C{BlC}JdKu@d@f@rF|@tIhAtHAl@Dz@h@tDhA`F`Ovi@HLX~@CDAX_ApB}@|AaAlAaA`AoA~@uAv@iA`@q@N","routeName":"B_53_B"}},{"deviceType":"B","onlyOneRoute":true,"color":"8f4099","routeForward":{"duration":"00:16","name":"Malu Rosu - Bereasca","moveDirection":"F","stations":[{"lng":25.99448,"geohash":"sxfrxw2d7m","stationName":"Malu Rosu","lat":44.94686,"stationId":"PL_B_54_F_0"},{"lng":25.99344,"geohash":"sxfrxmxg54","stationName":"Carol Davila","lat":44.94285,"stationId":"PL_B_54_F_1"},{"lng":25.9981896876,"geohash":"sxfrxt7q3w","stationName":"Aviatorilor","lat":44.942054607,"stationId":"PL_B_54_F_2"},{"lng":26.00325,"geohash":"sxfrxtqbxs","stationName":"Nicolae Titulescu","lat":44.94106,"stationId":"PL_B_54_F_3"},{"lng":26.00911,"geohash":"sxfrxv5k8p","stationName":"Traian","lat":44.94039,"stationId":"PL_B_54_F_4"},{"lng":26.0148048995,"geohash":"sxfrxvx2sb","stationName":"Scoala 4","lat":44.9424119083,"stationId":"PL_B_54_F_5"},{"lng":26.02579,"geohash":"sxfx8np3ky","stationName":"Liceul Ion Luca Caragiale","lat":44.94532,"stationId":"PL_B_54_F_6"},{"lng":26.04333,"geohash":"sxfx8wupv8","stationName":"Atlas","lat":44.95052,"stationId":"PL_B_54_F_7"}],"routeWayPoints":[],"routeWayPointsEncoded":"ksiqGw_t}Cz@h@rDlB|LtFbJi|@XaBp@qIXuBdBcKDq@GwGGiAu@eHs@kCaGqS{AmEm@wAs@wAyAkCl@eAVYjA{@JSFYB[?cBNwAT}@`@gAmNyLAKGM_@WMUCg@YsP]mHW_E@gDPeKAkCGiCe@_E@?c@gD@sAFiAFYFCNQDW@YOc@OKa@Q_@]Qe@CYEOUMKBs@k@iZme@RSNYf@_B","routeName":"B_54_F"},"name":"Malu Rosu - Bereasca","lineNumber":"54"},{"deviceType":"B","onlyOneRoute":false,"color":"8f4099","routeForward":{"duration":"00:20","name":"Gara de Vest - Muntenia - Auchan","moveDirection":"F","stations":[{"lng":25.9953562019,"geohash":"sxfrxd3jxe","stationName":"Gara de Vest imbarcare","lat":44.9254306116,"stationId":"PL_B_95_F_0"},{"lng":25.9988006947,"geohash":"sxfrxdgsxg","stationName":"Aleea Vitioarei","lat":44.92800494,"stationId":"PL_B_95_F_1"},{"lng":26.00622,"geohash":"sxfrxgc4ku","stationName":"Torcatori","lat":44.93312,"stationId":"PL_B_95_F_2"},{"lng":26.00382,"geohash":"sxfrxtpmsb","stationName":"Nicolae TItulescu","lat":44.94052,"stationId":"PL_B_95_F_3"},{"lng":25.99735,"geohash":"sxfrxt6xyp","stationName":"Aleea Profesorilor","lat":44.94232,"stationId":"PL_B_95_F_4"},{"lng":25.99165,"geohash":"sxfrxmqw1r","stationName":"ACR","lat":44.94202,"stationId":"PL_B_95_F_5"},{"lng":25.98893,"geohash":"sxfrxku93b","stationName":"Biserica Inaltarea Domnului","lat":44.93842,"stationId":"PL_B_95_F_6"},{"lng":25.98138,"geohash":"sxfrxhzhf4","stationName":"Pod Inalt","lat":44.93903,"stationId":"PL_B_95_F_7"},{"lng":25.96223,"geohash":"sxfrwvcj7f","stationName":"Auchan","lat":44.94461,"stationId":"PL_B_95_F_8"}],"routeWayPoints":[],"routeWayPointsEncoded":"wneqGyet}CoCkA]p@a@[_AkAq@yAmAqDcAsDeAaDuAgDiA_D}DqIk@_AeEuGe@a@o@gAeCsCc@cB]gAGg@gCz@aBx@mF|Bu@`@eCdA}@LgHVUF_AhAs@t@eBZ_AFwADiCO}C]u@vHgBhOiEvc@_@hD]hBhO`HrClAnAf@vCz@\\VLPNz@kAb^KhEs@xN]nKMtAk@`Oe@zNe@xKSb@c@`@IP_@zIYxE_@|BSPK@GDILCN@n@CTM`@wB~EeDpGeAfCKDUCy@Y[Qg@KMBIJENATDNC`@i@hFaCQ","routeName":"B_95_F"},"name":"Gara de Vest - Muntenia - Auchan - Gara de Vest","lineNumber":"95","routeBackward":{"duration":"00:20","name":"Auchan - Gara de Vest","moveDirection":"B","stations":[{"lng":25.96223,"geohash":"sxfrwvcj7f","stationName":"Auchan","lat":44.94461,"stationId":"PL_B_95_B_0"},{"lng":25.98124,"geohash":"sxfrxhyung","stationName":"Pod Inalt","lat":44.93891,"stationId":"PL_B_95_B_1"},{"lng":25.98458,"geohash":"sxfrxkc6hd","stationName":"Eremia Grigorescu","lat":44.93856,"stationId":"PL_B_95_B_2"},{"lng":25.98831,"geohash":"sxfrxku05x","stationName":"Biserica Inaltarea Domnului","lat":44.93824,"stationId":"PL_B_95_B_3"},{"lng":25.98968,"geohash":"sxfrxkt157","stationName":"Biserica Inaltarii Domnului","lat":44.93702,"stationId":"PL_B_95_B_4"},{"lng":25.98896,"geohash":"sxfrx7swfd","stationName":"Bloc 39","lat":44.93251,"stationId":"PL_B_95_B_5"},{"lng":25.99243,"geohash":"sxfrx6z5gx","stationName":"Bariera Marasesti","lat":44.9279,"stationId":"PL_B_95_B_6"},{"lng":25.99476,"geohash":"sxfrxd2gcy","stationName":"Gara de Vest debarcare","lat":44.92515,"stationId":"PL_B_95_B_7"}],"routeWayPoints":[],"routeWayPointsEncoded":"wfiqG{vm}CbCPf@yEA?PYXIHGDIBUNMT?x@XTBJEdAgCdDqGvB_FNS`@]HAFEFMPD^@TG^a@To@PaBZiKGcE?yFNkDRaBf@uHLqDPgDJ_J?wA\\oKx@iQTuBrAg^Ti@JMl@OnAH|MjAtAHjEf@hHl@dBBfAUzBs@~As@xC{BpA_BjByCAAf@eANCFIH[AMJ[rAoCfAeC|CsGT_@Hk@LGr@j@vBhCT@VSN[","routeName":"B_95_B"}},{"deviceType":"B","onlyOneRoute":false,"color":"8f4099","routeForward":{"duration":"00:10","name":"Gara de Vest - Auchan","moveDirection":"F","stations":[{"lng":25.9953562019,"geohash":"sxfrxd3jxe","stationName":"Gara de Vest imbarcare","lat":44.9254306116,"stationId":"PL_B_95B_F_0"},{"lng":25.99257,"geohash":"sxfrx6zhqu","stationName":"Bariera Mararesti","lat":44.92797,"stationId":"PL_B_95B_F_1"},{"lng":25.98941,"geohash":"sxfrx7kyjp","stationName":"Lamaita","lat":44.93103,"stationId":"PL_B_95B_F_2"},{"lng":25.98988,"geohash":"sxfrxkmm2h","stationName":"Biserica Inaltarea Domnului","lat":44.93638,"stationId":"PL_B_95B_F_3"},{"lng":25.98893,"geohash":"sxfrxku93b","stationName":"Biserica Inaltarea Domnului","lat":44.93842,"stationId":"PL_B_95B_F_4"},{"lng":25.98138,"geohash":"sxfrxhzhf4","stationName":"Pod Inalt","lat":44.93903,"stationId":"PL_B_95B_F_5"},{"lng":25.96223,"geohash":"sxfrwvcj7f","stationName":"Auchan","lat":44.94461,"stationId":"PL_B_95B_F_6"}],"routeWayPoints":[],"routeWayPointsEncoded":"{neqGwet}CmCkA{BjEmGvMe@XIPALBRa@z@qBfDk@t@q@n@iBpAgClAcDt@iABkGa@gL}@sOsAc@HOt@En@kAb^KhEs@xN]nKMtAk@`OKtDa@zK]bISb@c@`@IP_@zIYxE_@|BSPK@GDILCN@n@CTM`@wB~EeDpGeAfCKDUCy@Y[Qg@KMBIJENATDNC`@i@jF}BU","routeName":"B_95B_F"},"name":"Gara de Vest - Auchan - Muntenia - Gara de Vest","lineNumber":"95B","routeBackward":{"duration":"00:20","name":"Auchan - Muntenia - Gara de Vest","moveDirection":"B","stations":[{"lng":25.96223,"geohash":"sxfrwvcj7f","stationName":"Auchan","lat":44.94461,"stationId":"PL_B_95B_B_0"},{"lng":25.98124,"geohash":"sxfrxhyung","stationName":"Pod Inalt","lat":44.93891,"stationId":"PL_B_95B_B_1"},{"lng":25.98458,"geohash":"sxfrxkc6hd","stationName":"Eremia Grigorescu","lat":44.93856,"stationId":"PL_B_95B_B_2"},{"lng":25.99344,"geohash":"sxfrxmxg54","stationName":"Carol Davila","lat":44.94285,"stationId":"PL_B_95B_B_3"},{"lng":25.9981896876,"geohash":"sxfrxt7q3w","stationName":"Aviatorilor","lat":44.942054607,"stationId":"PL_B_95B_B_4"},{"lng":26.00325,"geohash":"sxfrxtqbxs","stationName":"Nicolae Titulescu","lat":44.94106,"stationId":"PL_B_95B_B_5"},{"lng":26.006,"geohash":"sxfrxgbfrw","stationName":"Torcatori","lat":44.93313,"stationId":"PL_B_95B_B_6"},{"lng":26.00317,"geohash":"sxfrxeqftz","stationName":"Domnisori","lat":44.93043,"stationId":"PL_B_95B_B_7"},{"lng":25.99644,"geohash":"sxfrxddp8b","stationName":"Spitalul CFR","lat":44.92713,"stationId":"PL_B_95B_B_8"},{"lng":25.99476,"geohash":"sxfrxd2gcy","stationName":"Gara de Vest debarcare","lat":44.92515,"stationId":"PL_B_95B_B_9"}],"routeWayPoints":[],"routeWayPointsEncoded":"qfiqG{vm}C|BPf@{ENWXIHGDIBUNMT?x@XTBJEdAgCdDqGvB_FNS`@]HAFEFMPD^@TG^a@To@PaBZiKGcE?yFNkDRaBf@uHLqDPgDJ_J?wA\\oKx@iQTuBvAu_@Ew@WO{@QaAKoA]qAg@iDyAuLqFYq@ESAw@^iDfD{]`@{DfBiOt@wH|C\\hCNvAE~@GdB[XCx@u@HSFc@LMTGfHW|@MdCeAt@a@lF}B`By@fC{@l@hG\\Pv@BPHx@|@n@fAd@`@pFtI|DpIhA~CtAfDdA`DbArDlApDp@xA~@jARNf@VzCbDVNVQPW","routeName":"B_95B_B"}},{"deviceType":"T","onlyOneRoute":false,"color":"8f4099","routeForward":{"duration":"00:28","name":"Spitalul Judetean - Gara de Sud","moveDirection":"F","stations":[{"lng":26.007071018,"geohash":"sxfrzc3c0t","stationName":"Spitalul Judetean","lat":44.9631213338,"stationId":"PL_T_101_F_0"},{"lng":26.006975,"geohash":"sxfrzc18qk","stationName":"Complex Ideal","lat":44.961617,"stationId":"PL_T_101_F_1"},{"lng":26.0054965613,"geohash":"sxfrzb0d5z","stationName":"Complex Mic","lat":44.9564394496,"stationId":"PL_T_101_F_2"},{"lng":26.0006798504,"geohash":"sxfrxxmhgz","stationName":"Complex Nord","lat":44.9527920416,"stationId":"PL_T_101_F_3"},{"lng":26.00364,"geohash":"sxfrxwzkbs","stationName":"8 martie","lat":44.95003,"stationId":"PL_T_101_F_4"},{"lng":26.01178,"geohash":"sxfrxymjym","stationName":"Piata Mihai Viteazul","lat":44.94746,"stationId":"PL_T_101_F_5"},{"lng":26.01574,"geohash":"sxfx8n2069","stationName":"Colinii","lat":44.94649,"stationId":"PL_T_101_F_6"},{"lng":26.02051,"geohash":"sxfx8j7t3v","stationName":"Galeriile Comerciale","lat":44.94188,"stationId":"PL_T_101_F_7"},{"lng":26.02515,"geohash":"sxfx8hybjc","stationName":"PTTR","lat":44.93821,"stationId":"PL_T_101_F_8"},{"lng":26.02678,"geohash":"sxfx87bhgu","stationName":"Ana Ipatescu","lat":44.93355,"stationId":"PL_T_101_F_9"},{"lng":26.0278323887,"geohash":"sxfx872fk2","stationName":"13 Decembrie","lat":44.9303520435,"stationId":"PL_T_101_F_10"},{"lng":26.02903,"geohash":"sxfx869b82","stationName":"BIG","lat":44.92593,"stationId":"PL_T_101_F_11"}],"routeWayPoints":[],"routeWayPointsEncoded":"ezlqGcpv}CfEwDhBnE|CdHEBTh@^b@b@Td@JlBJNOx@_@|Ak@jDUxBk@tAu@^]d@rBVx@vArDj@~@`CbD~E~FnEvEzElEh@y@pCoIpLsa@fBqFNUZCVSHMJu@Ca@Ko@E_A?SDa@pKgs@L[PYRO`@SnDAx@JLDn@b@p@l@N^Hf@?RDXFVHPZVZFTETMLSJYD]Ao@Ma@ZqB|@uCfEwLjA{CbB{CN[DSZK|D{Dn@i@`Aq@ZBPCjS_FxJuBxOqDRERDTAd@OJSjRiE~@Pv@OxA_@","routeName":"T_101_F"},"name":"Spitalul Judetean - Gara de Sud","lineNumber":"101","routeBackward":{"duration":"00:28","name":"Gara de Sud - Spitalul Judetean","moveDirection":"B","stations":[{"lng":26.02968,"geohash":"sxfx86d1x8","stationName":"Coreco Sud","lat":44.9261,"stationId":"PL_T_101_B_0"},{"lng":26.028068423,"geohash":"sxfx87349c","stationName":"13 Decembrie","lat":44.9303968578,"stationId":"PL_T_101_B_1"},{"lng":26.02702,"geohash":"sxfx87bm1d","stationName":"Ana Ipatescu","lat":44.93358,"stationId":"PL_T_101_B_2"},{"lng":26.02264,"geohash":"sxfx8jm177","stationName":"Palatul Culturii","lat":44.94118,"stationId":"PL_T_101_B_3"},{"lng":26.0199,"geohash":"sxfx8jepg9","stationName":"Hale Coreco","lat":44.94366,"stationId":"PL_T_101_B_4"},{"lng":26.01639,"geohash":"sxfx8n0xcv","stationName":"Colinii","lat":44.94643,"stationId":"PL_T_101_B_5"},{"lng":26.01223,"geohash":"sxfrxymtbf","stationName":"Piata Mihai Viteazul","lat":44.94744,"stationId":"PL_T_101_B_6"},{"lng":26.0068811176,"geohash":"sxfrxy9xsk","stationName":"Magazinul Dacia","lat":44.9491280765,"stationId":"PL_T_101_B_7"},{"lng":26.001568198,"geohash":"sxfrxxtc23","stationName":"Complex Nord","lat":44.9535323232,"stationId":"PL_T_101_B_8"},{"lng":26.00357,"geohash":"sxfrxxz5r0","stationName":"XXL Mega Discount","lat":44.95524,"stationId":"PL_T_101_B_9"},{"lng":26.01085,"geohash":"sxfrzbke8t","stationName":"Complex Mestesugaresc","lat":44.95806,"stationId":"PL_T_101_B_10"},{"lng":26.01031,"geohash":"sxfrzbu0hh","stationName":"Cramele Halewood","lat":44.9602,"stationId":"PL_T_101_B_11"},{"lng":26.00766,"geohash":"sxfrzc4pq7","stationName":"Spitalul Judetean","lat":44.96281,"stationId":"PL_T_101_B_12"}],"routeWayPoints":[],"routeWayPointsEncoded":"ireqGu|z}C{A`AQQKAUHEH}@v@aUzEqOrDsLjCuFvAiDv@qCh@iAZ[TYAk@XgA~@iDnDSZMHkAlBaArBo@bBiEzLMJK?{CoCcBxEo@p@UN[FmDAqA@c@DUb@QfAgHxe@CAB@Kt@uA`JQz@KZSZUPKPGTCV@VNbAIl@uBxGkH`WcC~H_BtEYfA]PWD]KwCoCmBoBaBgB_F_GaCcDk@_AsAkD[aA_F}TiD{PoJjJiNvN","routeName":"T_101_B"}},{"deviceType":"T","onlyOneRoute":false,"color":"8f4099","routeForward":{"duration":"00:24","name":"Spitalul Judetean - Gara Vest","moveDirection":"F","stations":[{"lng":26.007071018,"geohash":"sxfrzc3c0t","stationName":"Spitalul Judetean","lat":44.9631213338,"stationId":"PL_T_102_F_0"},{"lng":26.0099,"geohash":"sxfrzbgb6w","stationName":"Cramele Halewood","lat":44.96025,"stationId":"PL_T_102_F_1"},{"lng":26.00928,"geohash":"sxfrzb76h5","stationName":"Complex Mestesugaresc","lat":44.95779,"stationId":"PL_T_102_F_2"},{"lng":26.00404,"geohash":"sxfrxxzwd4","stationName":"XXL Mega Discount","lat":44.95581,"stationId":"PL_T_102_F_3"},{"lng":26.0006798504,"geohash":"sxfrxxmhgz","stationName":"Complex Nord","lat":44.9527920416,"stationId":"PL_T_102_F_4"},{"lng":25.99448,"geohash":"sxfrxw2d7m","stationName":"Malu Rosu","lat":44.94686,"stationId":"PL_T_102_F_5"},{"lng":25.99165,"geohash":"sxfrxmqw1r","stationName":"ACR","lat":44.94202,"stationId":"PL_T_102_F_6"},{"lng":25.98968,"geohash":"sxfrxkt157","stationName":"Biserica Inaltarii Domnului","lat":44.93702,"stationId":"PL_T_102_F_7"},{"lng":25.98896,"geohash":"sxfrx7swfd","stationName":"Bloc 39","lat":44.93251,"stationId":"PL_T_102_F_8"},