{"allLines":[{"deviceType":"B","onlyOneRoute":false,"color":"8f4099","routeForward":{"duration":"00:26","name":"Cimitir - Obi","moveDirection":"F","stations":[{"lng":24.13837,"geohash":"u81hmk1p8z","stationName":"Cimitir 1","lat":45.77037,"stationId":"SB_B_1_F_0"},{"lng":24.14043,"geohash":"u81hmkd82g","stationName":"Siretului 1","lat":45.77185,"stationId":"SB_B_1_F_1"},{"lng":24.14761,"geohash":"u81hmkxu00","stationName":"Ciresica 1","lat":45.77248,"stationId":"SB_B_1_F_2"},{"lng":24.14863,"geohash":"u81hmsbrzg","stationName":"Calea Cisnadiei","lat":45.77451,"stationId":"SB_B_1_F_3"},{"lng":24.15349,"geohash":"u81hmth135","stationName":"Interex","lat":45.77477,"stationId":"SB_B_1_F_4"},{"lng":24.15725,"geohash":"u81hmtqy88","stationName":"Piata Rahova 1","lat":45.77703,"stationId":"SB_B_1_F_5"},{"lng":24.15323,"geohash":"u81hmw5c5p","stationName":"Cofetaria Primavara","lat":45.78024,"stationId":"SB_B_1_F_6"},{"lng":24.14829,"geohash":"u81hmw85pc","stationName":"Piata Aurel Vlaicu 1","lat":45.7833,"stationId":"SB_B_1_F_7"},{"lng":24.14947,"geohash":"u81hmx1p56","stationName":"C.E.C.","lat":45.78674,"stationId":"SB_B_1_F_8"},{"lng":24.14718,"geohash":"u81ht2pmy5","stationName":"A. Saguna","lat":45.79202,"stationId":"SB_B_1_F_9"},{"lng":24.14008,"geohash":"u81ht2620e","stationName":"MOL","lat":45.79241,"stationId":"SB_B_1_F_10"},{"lng":24.13373,"geohash":"u81ht0mehs","stationName":"Polsib 2","lat":45.79293,"stationId":"SB_B_1_F_11"},{"lng":24.13592,"geohash":"u81ht0z4xd","stationName":"Mondex","lat":45.79558,"stationId":"SB_B_1_F_12"},{"lng":24.14113,"geohash":"u81ht3503p","stationName":"Scandia","lat":45.79659,"stationId":"SB_B_1_F_13"},{"lng":24.14467,"geohash":"u81ht3tt78","stationName":"Piata Cibin 1","lat":45.80016,"stationId":"SB_B_1_F_14"},{"lng":24.14927,"geohash":"u81htd2fyu","stationName":"Indes","lat":45.80387,"stationId":"SB_B_1_F_15"},{"lng":24.15193,"geohash":"u81htddykg","stationName":"Rusciorului 2","lat":45.80584,"stationId":"SB_B_1_F_16"},{"lng":24.14972,"geohash":"u81hte1r1q","stationName":"Gaz Metan","lat":45.80873,"stationId":"SB_B_1_F_17"},{"lng":24.14948,"geohash":"u81hts15e8","stationName":"Obor 2","lat":45.81359,"stationId":"SB_B_1_F_18"},{"lng":24.15005,"geohash":"u81htt3x2g","stationName":"Obi","lat":45.82112,"stationId":"SB_B_1_F_19"}],"routeWayPoints":[],"routeWayPointsEncoded":"_pjvGgoirC[[s@@oGaHNYrB_JTgA?_@Gm@{@}F_CoN_@{@EwIoBa@}F^UMU[CK?u@e@e[O{AYsAe@mAo@kAY[iByAc@u@cCwEYm@WaA_AkBDO@QEUGOSIK@KFMZ@`@BFIV_GtN]t@IHWHMPEb@F\\{Qpd@a@t@M@SP{@Hy@@gHcBmRkF}@KkBCw@KCSKQS?KHG^OH}ExEOJ[LIEM?KDGJEZ@JiAhA[n@_A|B_G`Ma@l@iAx@_@`@KXCh@Hl@zBzHDh@A~@BLFF\\LNJZ`@Zp@nCvGPn@HjAEdAk@|EkA`LwAlLs@fAYPMAoCcB{@m@{@gA}BiFOc@}BuQwAqNc@aCYu@Ua@iAyAyA{AwDmDaDoBaJ_GsFsF_@g@cEuIOa@wAcFkAyH?a@EQJI@IESECIBABMGuAE]B[EgABWHkDJaAFi@NkAf@mAdA}@xA_@hAu@vDw@dDqAjGKFGLaIgEaC_B_D}BcAi@a@E{@@mFjAkAKIEWDcA@kZeHyCw@eAg@y@Ya@YIKEMOKKAMBQRCf@HZPLD?F|@?f@YjDdCl@Lc@NwA","routeName":"B_1_F"},"name":"Cimitir - Obi","lineNumber":"1","routeBackward":{"duration":"00:28","name":"Obi - Cimitir","moveDirection":"B","stations":[{"lng":24.15005,"geohash":"u81htt3x2g","stationName":"Obi","lat":45.82112,"stationId":"SB_B_1_B_0"},{"lng":24.14898,"geohash":"u81hts2v8h","stationName":"Obor 1","lat":45.81533,"stationId":"SB_B_1_B_1"},{"lng":24.14636,"geohash":"u81ht7nydz","stationName":"Terezian","lat":45.80865,"stationId":"SB_B_1_B_2"},{"lng":24.14873,"geohash":"u81htd8s4n","stationName":"Gladiolelor","lat":45.80547,"stationId":"SB_B_1_B_3"},{"lng":24.14656,"geohash":"u81ht6nyxx","stationName":"Flaro","lat":45.80316,"stationId":"SB_B_1_B_4"},{"lng":24.14343,"geohash":"u81ht3sdnx","stationName":"Piata Cibin 2","lat":45.79964,"stationId":"SB_B_1_B_5"},{"lng":24.13804,"geohash":"u81ht30b3j","stationName":"Tehnica Noua","lat":45.79658,"stationId":"SB_B_1_B_6"},{"lng":24.13458,"geohash":"u81ht0yr02","stationName":"Algenia","lat":45.79634,"stationId":"SB_B_1_B_7"},{"lng":24.13132,"geohash":"u81ht0gys9","stationName":"Autogara 2","lat":45.79626,"stationId":"SB_B_1_B_8"},{"lng":24.13502,"geohash":"u81ht0q8fd","stationName":"Polsib 1","lat":45.79253,"stationId":"SB_B_1_B_9"},{"lng":24.14078,"geohash":"u81ht26c2c","stationName":"Alba Iulia","lat":45.79261,"stationId":"SB_B_1_B_10"},{"lng":24.14663,"geohash":"u81ht2p43r","stationName":"Casa Armatei","lat":45.79144,"stationId":"SB_B_1_B_11"},{"lng":24.14882,"geohash":"u81hmx08u7","stationName":"Lomonosov","lat":45.78567,"stationId":"SB_B_1_B_12"},{"lng":24.14968,"geohash":"u81hmw362m","stationName":"Bloc 1 Mihai Viteazu","lat":45.78182,"stationId":"SB_B_1_B_13"},{"lng":24.15318,"geohash":"u81hmw5b1c","stationName":"Bloc 9 Mihai Viteazu","lat":45.78004,"stationId":"SB_B_1_B_14"},{"lng":24.1496,"geohash":"u81hmt9hy2","stationName":"Nicolae Iorga","lat":45.7781,"stationId":"SB_B_1_B_15"},{"lng":24.14751,"geohash":"u81hmkxstc","stationName":"Ciresica 2","lat":45.77257,"stationId":"SB_B_1_B_16"},{"lng":24.14041,"geohash":"u81hmkd90m","stationName":"Siretului 2","lat":45.77199,"stationId":"SB_B_1_B_17"},{"lng":24.13837,"geohash":"u81hmk1p8z","stationName":"Cimitir 1","lat":45.77037,"stationId":"SB_B_1_B_18"}],"routeWayPoints":[],"routeWayPointsEncoded":"{ltvGoxkrCRDL{AhCh@Pu@HGd@ItUpFtCr@nAd@NBpA_@lFkAz@A`@DbAh@~C|B`C~A`IfECRDRHHHBNCHOzHfEbBgDlC}Ef@e@vFmE`Au@VKnIdSb@f@hFdExAfAlAjAn@f@`K~Fj@h@hEpEZ`@Xp@Nn@NbA|@hK`@|Dv@nG|@tGiCnBcAlAqB`DmDdHfDZvQ|@lCPp@d@NRHBLAHKFQ?UEQ@m@XqCNs@B?JIDUC[BkBvAmLjB{PNmBA}@Ei@I_@wCgHk@}Ae@cAc@kAoB{GQu@Cm@He@Z_@RQLGjDbDtHwK`@q@w@mAk@oA[yA?g@Ni@l@w@n@q@\\WPAHGFIBURUlEkEr@i@FDL@bBYbA?`AHlRhF~FxAv@NvBt@FLJDVCHIJ]?Of@cC~Pqb@HIL@PG|ArCfBlEZ~AVjCDlAa@jOtF^hIb@~@?nBIfE[t@CnB`@DvI^z@~BnNz@|FFl@?^s@bDuAbGOXnG`Hv@v@","routeName":"B_1_B"}},{"deviceType":"B","onlyOneRoute":false,"color":"8f4099","routeForward":{"duration":"00:31","name":"Cimitir - Viile Sibiului","moveDirection":"F","stations":[{"lng":24.13837,"geohash":"u81hmk1p8z","stationName":"Cimitir 1","lat":45.77037,"stationId":"SB_B_1-1_F_0"},{"lng":24.14043,"geohash":"u81hmkd82g","stationName":"Siretului 1","lat":45.77185,"stationId":"SB_B_1-1_F_1"},{"lng":24.14761,"geohash":"u81hmkxu00","stationName":"Ciresica 1","lat":45.77248,"stationId":"SB_B_1-1_F_2"},{"lng":24.14863,"geohash":"u81hmsbrzg","stationName":"Calea Cisnadiei","lat":45.77451,"stationId":"SB_B_1-1_F_3"},{"lng":24.15349,"geohash":"u81hmth135","stationName":"Interex","lat":45.77477,"stationId":"SB_B_1-1_F_4"},{"lng":24.15725,"geohash":"u81hmtqy88","stationName":"Piata Rahova 1","lat":45.77703,"stationId":"SB_B_1-1_F_5"},{"lng":24.15323,"geohash":"u81hmw5c5p","stationName":"Cofetaria Primavara","lat":45.78024,"stationId":"SB_B_1-1_F_6"},{"lng":24.14829,"geohash":"u81hmw85pc","stationName":"Piata Aurel Vlaicu 1","lat":45.7833,"stationId":"SB_B_1-1_F_7"},{"lng":24.14947,"geohash":"u81hmx1p56","stationName":"C.E.C.","lat":45.78674,"stationId":"SB_B_1-1_F_8"},{"lng":24.14718,"geohash":"u81ht2pmy5","stationName":"A. Saguna","lat":45.79202,"stationId":"SB_B_1-1_F_9"},{"lng":24.14008,"geohash":"u81ht2620e","stationName":"MOL","lat":45.79241,"stationId":"SB_B_1-1_F_10"},{"lng":24.13373,"geohash":"u81ht0mehs","stationName":"Polsib 2","lat":45.79293,"stationId":"SB_B_1-1_F_11"},{"lng":24.13592,"geohash":"u81ht0z4xd","stationName":"Mondex","lat":45.79558,"stationId":"SB_B_1-1_F_12"},{"lng":24.14113,"geohash":"u81ht3503p","stationName":"Scandia","lat":45.79659,"stationId":"SB_B_1-1_F_13"},{"lng":24.14467,"geohash":"u81ht3tt78","stationName":"Piata Cibin 1","lat":45.80016,"stationId":"SB_B_1-1_F_14"},{"lng":24.14927,"geohash":"u81htd2fyu","stationName":"Indes","lat":45.80387,"stationId":"SB_B_1-1_F_15"},{"lng":24.15193,"geohash":"u81htddykg","stationName":"Rusciorului 2","lat":45.80584,"stationId":"SB_B_1-1_F_16"},{"lng":24.14972,"geohash":"u81hte1r1q","stationName":"Gaz Metan","lat":45.80873,"stationId":"SB_B_1-1_F_17"},{"lng":24.14948,"geohash":"u81hts15e8","stationName":"Obor 2","lat":45.81359,"stationId":"SB_B_1-1_F_18"},{"lng":24.15033,"geohash":"u81htt1dx3","stationName":"Opel","lat":45.81892,"stationId":"SB_B_1-1_F_19"},{"lng":24.15636,"geohash":"u81htxw0gc","stationName":"Viile Sibiului 3","lat":45.83235,"stationId":"SB_B_1-1_F_20"},{"lng":24.16034,"geohash":"u81hvb1nb9","stationName":"Viile Sibiului 1","lat":45.83613,"stationId":"SB_B_1-1_F_21"}],"routeWayPoints":[],"routeWayPointsEncoded":"cpjvGgoirC?C_@Yk@BoGaHNY~BcKHc@?_@cAkH_CoN_@{@EwIeB_@UCqF`@UMU[CK?u@WaOMcKO{AYsAe@mAo@kAy@y@iA{@c@u@cCwEYm@WaA_AkBDO@QEUGOSIK@KFMZ@`@BFIVuG~OQTOBMJIRAP?RDR{Qpd@a@t@M@SP{@Hy@@aCi@gFqAkPsE}@KkBCw@KCSQQK?KFGPAN}FnF[LIEM?KDKX?XiAhA[n@_A|ByDjIoAdCW\\}AjAKNKXCh@Hl@zBzHDh@Ct@DVt@`@Z`@rDxIH^Dh@@|@OlB_@xCkA`LwAlLa@p@]^MFMAoCcB{@m@{@gAiBcEc@iAmCeToAgM[{AYu@Ua@iAyAyA{AwDmDaDoBaJ_GsFsF_@g@cEuIWs@gA{DMm@cAsGGaAFCDI?KIQG@EDMGuAE]B[EgABWHwCHuAHoA`@e@Ti@`@c@b@i@v@S`@_@hAu@vDm@~B{ApHE@MR_EuByDyBoGoE]O{@Ea@@wFlAaAMIEWDcA@kZeHyCw@eAg@y@Ya@YIKEMOKKAMBKJ_AFqDOk@GcNwCaAMkA@oCf@m@F}AFwBIcDWS[wHeJqDqEkAgC_BwDiAgB_IuJ{AeB_DuB]o@MN","routeName":"B_1-1_F"},"name":"Cimitir - Viile Sibiului","lineNumber":"1-1","routeBackward":{"duration":"00:33","name":"Viile Sibiului - Cimitir","moveDirection":"B","stations":[{"lng":24.16034,"geohash":"u81hvb1nb9","stationName":"Viile Sibiului 1","lat":45.83613,"stationId":"SB_B_1-1_B_0"},{"lng":24.15622,"geohash":"u81htxw0bt","stationName":"Viile Sibiului 2","lat":45.83237,"stationId":"SB_B_1-1_B_1"},{"lng":24.15005,"geohash":"u81htt3x2g","stationName":"Obi","lat":45.82112,"stationId":"SB_B_1-1_B_2"},{"lng":24.14898,"geohash":"u81hts2v8h","stationName":"Obor 1","lat":45.81533,"stationId":"SB_B_1-1_B_3"},{"lng":24.14636,"geohash":"u81ht7nydz","stationName":"Terezian","lat":45.80865,"stationId":"SB_B_1-1_B_4"},{"lng":24.14873,"geohash":"u81htd8s4n","stationName":"Gladiolelor","lat":45.80547,"stationId":"SB_B_1-1_B_5"},{"lng":24.14656,"geohash":"u81ht6nyxx","stationName":"Flaro","lat":45.80316,"stationId":"SB_B_1-1_B_6"},{"lng":24.14343,"geohash":"u81ht3sdnx","stationName":"Piata Cibin 2","lat":45.79964,"stationId":"SB_B_1-1_B_7"},{"lng":24.13804,"geohash":"u81ht30b3j","stationName":"Tehnica Noua","lat":45.79658,"stationId":"SB_B_1-1_B_8"},{"lng":24.13458,"geohash":"u81ht0yr02","stationName":"Algenia","lat":45.79634,"stationId":"SB_B_1-1_B_9"},{"lng":24.13132,"geohash":"u81ht0gys9","stationName":"Autogara 2","lat":45.79626,"stationId":"SB_B_1-1_B_10"},{"lng":24.13502,"geohash":"u81ht0q8fd","stationName":"Polsib 1","lat":45.79253,"stationId":"SB_B_1-1_B_11"},{"lng":24.14078,"geohash":"u81ht26c2c","stationName":"Alba Iulia","lat":45.79261,"stationId":"SB_B_1-1_B_12"},{"lng":24.14663,"geohash":"u81ht2p43r","stationName":"Casa Armatei","lat":45.79144,"stationId":"SB_B_1-1_B_13"},{"lng":24.14882,"geohash":"u81hmx08u7","stationName":"Lomonosov","lat":45.78567,"stationId":"SB_B_1-1_B_14"},{"lng":24.14968,"geohash":"u81hmw362m","stationName":"Bloc 1 Mihai Viteazu","lat":45.78182,"stationId":"SB_B_1-1_B_15"},{"lng":24.15318,"geohash":"u81hmw5b1c","stationName":"Bloc 9 Mihai Viteazu","lat":45.78004,"stationId":"SB_B_1-1_B_16"},{"lng":24.1496,"geohash":"u81hmt9hy2","stationName":"Nicolae Iorga","lat":45.7781,"stationId":"SB_B_1-1_B_17"},{"lng":24.14751,"geohash":"u81hmkxstc","stationName":"Ciresica 2","lat":45.77257,"stationId":"SB_B_1-1_B_18"},{"lng":24.14041,"geohash":"u81hmkd90m","stationName":"Siretului 2","lat":45.77199,"stationId":"SB_B_1-1_B_19"},{"lng":24.13837,"geohash":"u81hmk1p8z","stationName":"Cimitir 1","lat":45.77037,"stationId":"SB_B_1-1_B_20"}],"routeWayPoints":[],"routeWayPointsEncoded":"sjwvG{ymrCLO\\n@jCfBz@t@rJrLhAfBxCbHp@`A|MlPzG`@p@AxAMrBa@p@Gt@?fDh@zJzBrALfBBb@D`@RRRDRFJRHFnAAn@WpCdCl@FML}@RcChCh@Pu@HGd@IjZdHrAf@N?bA[vFmA`@Az@D\\NnGnExDxB~DtBA`@FJHFL?JIDIzHfExEeJd@m@bHuFn@e@VK`HnPl@tAPT|@v@vGfF~A|AjC`BrGrDj@h@hEpEZ`@Xp@Nn@NbA|@hK`@|DtBdPiCnBcAlAa@n@RVSWoApBmDdHfDZvId@xERrDTp@d@FNJFL?JGHM@UCy@@_@XmCLg@HCHO@UCQBkBt@_G|BsSZyCDeAIkAQo@oCwGk@}Aa@{@g@sAoB{GQu@Cm@He@JOb@a@LGjDbDtHwK`@q@w@mAk@oA[yA?g@BOJYl@w@n@q@\\WPAPQBURUlEkEr@i@PHfB[bA?`AHdDz@zGlBnIxBrCn@vBt@BFJHT?HEHKb@gC^kAjPia@HIL@PG|ArCfBlEZ~AVjCDlAIbEWfItF^hIb@~@?nBItE]f@AnB`@DvI^z@~BnNz@|FFl@?^s@bDuAbGOXtIhJ","routeName":"B_1-1_B"}},{"deviceType":"B","onlyOneRoute":false,"color":"8f4099","routeForward":{"duration":"00:24","name":"Irmes - Piata Cibin","moveDirection":"F","stations":[{"lng":24.1914,"geohash":"u81hqrx9s6","stationName":"Irmes","lat":45.78854,"stationId":"SB_B_2_F_0"},{"lng":24.18882,"geohash":"u81hqrtc2q","stationName":"CGS","lat":45.78852,"stationId":"SB_B_2_F_1"},{"lng":24.18239,"geohash":"u81hqr90d8","stationName":"Cantina Industriala 2","lat":45.78836,"stationId":"SB_B_2_F_2"},{"lng":24.17443,"geohash":"u81hqp571n","stationName":"Piata Vasile Aaron","lat":45.78607,"stationId":"SB_B_2_F_3"},{"lng":24.1691,"geohash":"u81hmyx6ub","stationName":"Liceul Energetic","lat":45.78325,"stationId":"SB_B_2_F_4"},{"lng":24.16181,"geohash":"u81hmyf1fz","stationName":"Moldoveanu","lat":45.78449,"stationId":"SB_B_2_F_5"},{"lng":24.15237,"geohash":"u81hmxe1rh","stationName":"Politie","lat":45.78851,"stationId":"SB_B_2_F_6"},{"lng":24.14993,"geohash":"u81ht817yj","stationName":"Teatru","lat":45.79169,"stationId":"SB_B_2_F_7"},{"lng":24.15652,"geohash":"u81ht8y0p8","stationName":"Spitalul Judetean","lat":45.79514,"stationId":"SB_B_2_F_8"},{"lng":24.16064,"geohash":"u81htc14ze","stationName":"Simerom","lat":45.797,"stationId":"SB_B_2_F_9"},{"lng":24.16146,"geohash":"u81htc9ffy","stationName":"Gara","lat":45.79976,"stationId":"SB_B_2_F_10"},{"lng":24.15668,"geohash":"u81htdn656","stationName":"Abatorului","lat":45.80236,"stationId":"SB_B_2_F_11"},{"lng":24.15056,"geohash":"u81htd9csy","stationName":"Liceul Independentei","lat":45.80504,"stationId":"SB_B_2_F_12"},{"lng":24.14656,"geohash":"u81ht6nyxx","stationName":"Flaro","lat":45.80316,"stationId":"SB_B_2_F_13"},{"lng":24.14368,"geohash":"u81ht3ughw","stationName":"Piata Cibin 3","lat":45.80118,"stationId":"SB_B_2_F_14"}],"routeWayPoints":[],"routeWayPointsEncoded":"ianvGg{srC@ATpYTh`@I~AYnAc@lAyAnC{@zBO|@?x@Dl@Lj@nCfH^hCHNLHP@LIJUz@i@z@J\\N`@V~AhBzAjB^n@~Xvo@Hf@cRld@mCxGoAjDaBdFcDnJmHb[e@tAe@z@EAMDILCVOHiEdEc@^[LIES@o@aAWYoBcE{BmF{F{NoEcJ]_A_C_Ik@iC_@eC@YC]KWSSiCiDmB_EKgAcCaFc@UYE]ReFzGMZBh@d@pCBz@D`@lB~MuEn@aE|@OAa@MGKKGM?MHGTQ@uFhBu@j@g@l@IPG^c@fFDfI?~CERKTOHI@eCSG@EDMGuAEg@DGDCJ?Zr@xBxA`InIdSb@f@hFdExAfAlAjAn@f@qBjAIB","routeName":"B_2_F"},"name":"Irmes - Piata Cibin","lineNumber":"2","routeBackward":{"duration":"00:24","name":"Piata Cibin - Irmes","moveDirection":"B","stations":[{"lng":24.14368,"geohash":"u81ht3ughw","stationName":"Piata Cibin 3","lat":45.80118,"stationId":"SB_B_2_B_0"},{"lng":24.14586,"geohash":"u81ht6yrrq","stationName":"Strada Lunga","lat":45.8074,"stationId":"SB_B_2_B_1"},{"lng":24.14981,"geohash":"u81hte1q76","stationName":"Rusciorului 1","lat":45.80858,"stationId":"SB_B_2_B_2"},{"lng":24.15149,"geohash":"u81htd4xdx","stationName":"Libertatea","lat":45.80333,"stationId":"SB_B_2_B_3"},{"lng":24.15575,"geohash":"u81ht9vxvf","stationName":"Apollo","lat":45.80197,"stationId":"SB_B_2_B_4"},{"lng":24.15809,"geohash":"u81ht9rru7","stationName":"BRD","lat":45.79923,"stationId":"SB_B_2_B_5"},{"lng":24.15815,"geohash":"u81ht8zmms","stationName":"Parcul Tineretului","lat":45.79606,"stationId":"SB_B_2_B_6"},{"lng":24.15456,"geohash":"u81ht8sg4n","stationName":"Muzeul de Stiinte Naturale","lat":45.79431,"stationId":"SB_B_2_B_7"},{"lng":24.15093,"geohash":"u81ht860m7","stationName":"Nufarul","lat":45.79245,"stationId":"SB_B_2_B_8"},{"lng":24.15179,"geohash":"u81hmxdc3q","stationName":"Cofetarie Aida","lat":45.78852,"stationId":"SB_B_2_B_9"},{"lng":24.15869,"geohash":"u81hmxpf4k","stationName":"Miraslau","lat":45.78589,"stationId":"SB_B_2_B_10"},{"lng":24.16576,"geohash":"u81hmykvpp","stationName":"Peco Milea","lat":45.7823,"stationId":"SB_B_2_B_11"},{"lng":24.17042,"geohash":"u81hqn8mgt","stationName":"Cofetaria Narcisa","lat":45.78379,"stationId":"SB_B_2_B_12"},{"lng":24.17568,"geohash":"u81hqphpyj","stationName":"Sanitas Vasile Aaron","lat":45.78688,"stationId":"SB_B_2_B_13"},{"lng":24.1823,"geohash":"u81hqr3p8q","stationName":"Blocuri Indepententa 2","lat":45.78822,"stationId":"SB_B_2_B_14"},{"lng":24.18785,"geohash":"u81hqrt03v","stationName":"Independenta 2","lat":45.78834,"stationId":"SB_B_2_B_15"},{"lng":24.19162,"geohash":"u81hqrxb1x","stationName":"Irmes","lat":45.78831,"stationId":"SB_B_2_B_16"}],"routeWayPoints":[],"routeWayPointsEncoded":"eppvG_qjrCQBg@N[@gBMeD_AkCg@yCa@oCWiA[sCoA_Ae@mP}I?c@IMzAqHZeCt@wD^iAz@uAd@g@h@a@d@UnAa@tAIvCI`APh@^LDHCFKXUv@@^HFD`@KRAbEb@tDt@JEBOSoBFsGIkE@k@l@aDZgAn@mAp@iBDDNBRIF]CYGKBmCHo@Tw@fB}Bt@mAn@{@^W|@QLBHHd@nCfArIXGlAm@dC}AhAo@`Ae@xCm@hAdB`ArB~B~H\\~@nEbJpHhRtDbIFd@l@rA?XJTHHJ?RMF[`FaFr@i@NHLCHMDQC[`@gA`@uBt@cDfGcW|AkEvDgLjC{GjSyf@Ig@_Ywo@_@o@{AkB_BiBa@W]OyAUg@AEGKEM?y@aAcCgGS}@G_@Ci@@w@RcAt@iB^m@v@_Bd@oAXoAFiA@yAi@av@Ra@Da@Ag@","routeName":"B_2_B"}},{"deviceType":"B","onlyOneRoute":false,"color":"8f4099","routeForward":{"duration":"00:29","name":"Eurofoam - Piata Cibin","moveDirection":"F","stations":[{"lng":24.19496,"geohash":"u81hqtf5z2","stationName":"Eurofarm","lat":45.7793,"stationId":"SB_B_2-1_F_0"},{"lng":24.1914,"geohash":"u81hqrx9s6","stationName":"Irmes","lat":45.78854,"stationId":"SB_B_2-1_F_1"},{"lng":24.18882,"geohash":"u81hqrtc2q","stationName":"CGS","lat":45.78852,"stationId":"SB_B_2-1_F_2"},{"lng":24.18239,"geohash":"u81hqr90d8","stationName":"Cantina Industriala 2","lat":45.78836,"stationId":"SB_B_2-1_F_3"},{"lng":24.17443,"geohash":"u81hqp571n","stationName":"Piata Vasile Aaron","lat":45.78607,"stationId":"SB_B_2-1_F_4"},{"lng":24.1691,"geohash":"u81hmyx6ub","stationName":"Liceul Energetic","lat":45.78325,"stationId":"SB_B_2-1_F_5"},{"lng":24.16181,"geohash":"u81hmyf1fz","stationName":"Moldoveanu","lat":45.78449,"stationId":"SB_B_2-1_F_6"},{"lng":24.15237,"geohash":"u81hmxe1rh","stationName":"Politie","lat":45.78851,"stationId":"SB_B_2-1_F_7"},{"lng":24.14993,"geohash":"u81ht817yj","stationName":"Teatru","lat":45.79169,"stationId":"SB_B_2-1_F_8"},{"lng":24.15652,"geohash":"u81ht8y0p8","stationName":"Spitalul Judetean","lat":45.79514,"stationId":"SB_B_2-1_F_9"},{"lng":24.16064,"geohash":"u81htc14ze","stationName":"Simerom","lat":45.797,"stationId":"SB_B_2-1_F_10"},{"lng":24.16146,"geohash":"u81htc9ffy","stationName":"Gara","lat":45.79976,"stationId":"SB_B_2-1_F_11"},{"lng":24.15668,"geohash":"u81htdn656","stationName":"Abatorului","lat":45.80236,"stationId":"SB_B_2-1_F_12"},{"lng":24.15056,"geohash":"u81htd9csy","stationName":"Liceul Independentei","lat":45.80504,"stationId":"SB_B_2-1_F_13"},{"lng":24.14656,"geohash":"u81ht6nyxx","stationName":"Flaro","lat":45.80316,"stationId":"SB_B_2-1_F_14"},{"lng":24.14368,"geohash":"u81ht3ughw","stationName":"Piata Cibin 3","lat":45.80118,"stationId":"SB_B_2-1_F_15"}],"routeWayPoints":[],"routeWayPointsEncoded":"gglvGiqtrCAAq@~@UJkDdEeAjAIDU?kA]OFSb@IDgENoc@bAUj@n@`_AAxAGhAYnAe@nAw@~A_@l@u@hBMd@Iv@DfAF^R|@bCfGb@pCLLLDNCNOBKz@i@l@F^JXN`@ZnAvAlBdCjFrLbR~b@Hf@kSxf@kCzGwDfL}AjEcA`EeFjT]tAe@tAe@z@O@KJEP?JULcE~Dc@^[LIES@o@aAWYoDyHwHsRoEcJ]_A_C_Ik@iC_@eC@YC]KWSSiCiDmB_EKgAcCaFc@UYE]RmFfHG`@j@hDH|Al@zD~@bHuEn@aE|@OAa@MGKKGM?MHGTQ@uFhBu@j@g@n@M\\e@bFAdAFhLCXGPWTI@gCSIBABMGuAEa@BIBEHC\\t@|BxA`InIdSPT|@v@vGfF~A|A\\TyBnA","routeName":"B_2-1_F"},"name":"Eurofoam - Piata Cibin","lineNumber":"2-1","routeBackward":{"duration":"00:29","name":"Piata Cibin - Eurofoam","moveDirection":"B","stations":[{"lng":24.14368,"geohash":"u81ht3ughw","stationName":"Piata Cibin 3","lat":45.80118,"stationId":"SB_B_2-1_B_0"},{"lng":24.14586,"geohash":"u81ht6yrrq","stationName":"Strada Lunga","lat":45.8074,"stationId":"SB_B_2-1_B_1"},{"lng":24.14981,"geohash":"u81hte1q76","stationName":"Rusciorului 1","lat":45.80858,"stationId":"SB_B_2-1_B_2"},{"lng":24.15149,"geohash":"u81htd4xdx","stationName":"Libertatea","lat":45.80333,"stationId":"SB_B_2-1_B_3"},{"lng":24.15575,"geohash":"u81ht9vxvf","stationName":"Apollo","lat":45.80197,"stationId":"SB_B_2-1_B_4"},{"lng":24.15809,"geohash":"u81ht9rru7","stationName":"BRD","lat":45.79923,"stationId":"SB_B_2-1_B_5"},{"lng":24.15815,"geohash":"u81ht8zmms","stationName":"Parcul Tineretului","lat":45.79606,"stationId":"SB_B_2-1_B_6"},{"lng":24.15456,"geohash":"u81ht8sg4n","stationName":"Muzeul de Stiinte Naturale","lat":45.79431,"stationId":"SB_B_2-1_B_7"},{"lng":24.15093,"geohash":"u81ht860m7","stationName":"Nufarul","lat":45.79245,"stationId":"SB_B_2-1_B_8"},{"lng":24.15179,"geohash":"u81hmxdc3q","stationName":"Cofetarie Aida","lat":45.78852,"stationId":"SB_B_2-1_B_9"},{"lng":24.15869,"geohash":"u81hmxpf4k","stationName":"Miraslau","lat":45.78589,"stationId":"SB_B_2-1_B_10"},{"lng":24.16576,"geohash":"u81hmykvpp","stationName":"Peco Milea","lat":45.7823,"stationId":"SB_B_2-1_B_11"},{"lng":24.17042,"geohash":"u81hqn8mgt","stationName":"Cofetaria Narcisa","lat":45.78379,"stationId":"SB_B_2-1_B_12"},{"lng":24.17568,"geohash":"u81hqphpyj","stationName":"Sanitas Vasile Aaron","lat":45.78688,"stationId":"SB_B_2-1_B_13"},{"lng":24.1823,"geohash":"u81hqr3p8q","stationName":"Blocuri Indepententa 2","lat":45.78822,"stationId":"SB_B_2-1_B_14"},{"lng":24.18785,"geohash":"u81hqrt03v","stationName":"Independenta 2","lat":45.78834,"stationId":"SB_B_2-1_B_15"},{"lng":24.19162,"geohash":"u81hqrxb1x","stationName":"Irmes","lat":45.78831,"stationId":"SB_B_2-1_B_16"},{"lng":24.19496,"geohash":"u81hqtf5z2","stationName":"Eurofarm","lat":45.7793,"stationId":"SB_B_2-1_B_17"}],"routeWayPoints":[],"routeWayPointsEncoded":"eppvG_qjrCQBg@N[@gBMeD_AkCg@yCa@oCWiA[sCoA_Ae@mP}I?c@IMzAqHl@gEb@uB^iA^q@\\g@b@c@h@a@d@UnAa@tAIvCI`APh@^LDHCFKXUv@@^HFD`@KRAbEb@tDt@JEBOSoBFwD?{AI_F@Wr@oDJa@bAwBf@wAJHRCHEBK@_@Kc@BaBDy@ZmAR[p@y@`CiDd@_@bAQLFBDXbBnAbJBZXGlAm@dC}AhAo@`Ae@xCm@zAbCn@tA~B~H\\~@nEbJvHrRnDxHFd@l@rAARBJLTJBJAPQBURUlEkEr@i@PHLEHMBQEYb@gAVyAlHc[l@kBtBcG`BeFnAkDpVgm@Ig@mVak@aBqD_AmA}BoCc@[WO_@Km@G]Ig@AKKMCE@[]]c@oCgHMk@Em@?y@N}@z@{BxAoCb@mAXoAH_BEaKi@cu@Tk@bVi@rRi@HERc@NGjA\\RAJCpFqGTKp@_A","routeName":"B_2-1_B"}},{"deviceType":"B","onlyOneRoute":false,"color":"8f4099","routeForward":{"duration":"00:28","name":"Scandia - Piata Cibin","moveDirection":"F","stations":[{"lng":24.20349,"geohash":"u81hwb8qq4","stationName":"Scandia ","lat":45.79485,"stationId":"SB_B_2-2_F_0"},{"lng":24.20839,"geohash":"u81hwbh02r","stationName":"Podului 1","lat":45.7911,"stationId":"SB_B_2-2_F_1"},{"lng":24.1914,"geohash":"u81hqrx9s6","stationName":"Irmes","lat":45.78854,"stationId":"SB_B_2-2_F_2"},{"lng":24.18882,"geohash":"u81hqrtc2q","stationName":"CGS","lat":45.78852,"stationId":"SB_B_2-2_F_3"},{"lng":24.18239,"geohash":"u81hqr90d8","stationName":"Cantina Industriala 2","lat":45.78836,"stationId":"SB_B_2-2_F_4"},{"lng":24.17443,"geohash":"u81hqp571n","stationName":"Piata Vasile Aaron","lat":45.78607,"stationId":"SB_B_2-2_F_5"},{"lng":24.1691,"geohash":"u81hmyx6ub","stationName":"Liceul Energetic","lat":45.78325,"stationId":"SB_B_2-2_F_6"},{"lng":24.16181,"geohash":"u81hmyf1fz","stationName":"Moldoveanu","lat":45.78449,"stationId":"SB_B_2-2_F_7"},{"lng":24.15237,"geohash":"u81hmxe1rh","stationName":"Politie","lat":45.78851,"stationId":"SB_B_2-2_F_8"},{"lng":24.14993,"geohash":"u81ht817yj","stationName":"Teatru","lat":45.79169,"stationId":"SB_B_2-2_F_9"},{"lng":24.15652,"geohash":"u81ht8y0p8","stationName":"Spitalul Judetean","lat":45.79514,"stationId":"SB_B_2-2_F_10"},{"lng":24.16064,"geohash":"u81htc14ze","stationName":"Simerom","lat":45.797,"stationId":"SB_B_2-2_F_11"},{"lng":24.16146,"geohash":"u81htc9ffy","stationName":"Gara","lat":45.79976,"stationId":"SB_B_2-2_F_12"},{"lng":24.15668,"geohash":"u81htdn656","stationName":"Abatorului","lat":45.80236,"stationId":"SB_B_2-2_F_13"},{"lng":24.15056,"geohash":"u81htd9csy","stationName":"Liceul Independentei","lat":45.80504,"stationId":"SB_B_2-2_F_14"},{"lng":24.14656,"geohash":"u81ht6nyxx","stationName":"Flaro","lat":45.80316,"stationId":"SB_B_2-2_F_15"},{"lng":24.14368,"geohash":"u81ht3ughw","stationName":"Piata Cibin 3","lat":45.80118,"stationId":"SB_B_2-2_F_16"}],"routeWayPoints":[],"routeWayPointsEncoded":"uhovGigvrCrEsHXSR[dKaM`AcCh@YFp@l@lDdAlE^p@`@bCZdCbAtLb@tGnB`Xh@~HNrCPjVPc@BaAISOMd@lp@D`KI~AYnAc@lAyAnC{@zBO|@?x@Dl@Lj@nCfH^hCHNLHP@LIJUz@i@z@J\\N`@V~AhBzAjB^n@~Xvo@Hf@}R~e@sBfFoAjDaBdFcDnJmHb[e@tAe@z@EAMDILCVOHiEdEc@^[LIES@o@aAWYoDyH_J_UiD{Gy@}BmBcHg@}BM{@Gy@?]I]MU_@_@sAcBa@m@q@{A{@cBA_@Ig@cCaFg@WUC]ReFzGMZBh@PlARbAFtAD^d@nCbAvH{Df@kCn@oATq@OKOMCM@MPAJK@{FhBu@j@g@n@M\\e@bFAdAFhLCXGPWTI@gCSIBABMGuAEa@BIBEHC\\t@|BxA`InIdSPT|@v@vGfF~A|A\\T{BnA","routeName":"B_2-2_F"},"name":"Scandia - Piata Cibin","lineNumber":"2-2","routeBackward":{"duration":"00:29","name":"Piata Cibin - Scandia","moveDirection":"B","stations":[{"lng":24.14368,"geohash":"u81ht3ughw","stationName":"Piata Cibin 3","lat":45.80118,"stationId":"SB_B_2-2_B_0"},{"lng":24.14586,"geohash":"u81ht6yrrq","stationName":"Strada Lunga","lat":45.8074,"stationId":"SB_B_2-2_B_1"},{"lng":24.14981,"geohash":"u81hte1q76","stationName":"Rusciorului 1","lat":45.80858,"stationId":"SB_B_2-2_B_2"},{"lng":24.15149,"geohash":"u81htd4xdx","stationName":"Libertatea","lat":45.80333,"stationId":"SB_B_2-2_B_3"},{"lng":24.15575,"geohash":"u81ht9vxvf","stationName":"Apollo","lat":45.80197,"stationId":"SB_B_2-2_B_4"},{"lng":24.15809,"geohash":"u81ht9rru7","stationName":"BRD","lat":45.79923,"stationId":"SB_B_2-2_B_5"},{"lng":24.15815,"geohash":"u81ht8zmms","stationName":"Parcul Tineretului","lat":45.79606,"stationId":"SB_B_2-2_B_6"},{"lng":24.15456,"geohash":"u81ht8sg4n","stationName":"Muzeul de Stiinte Naturale","lat":45.79431,"stationId":"SB_B_2-2_B_7"},{"lng":24.15093,"geohash":"u81ht860m7","stationName":"Nufarul","lat":45.79245,"stationId":"SB_B_2-2_B_8"},{"lng":24.15179,"geohash":"u81hmxdc3q","stationName":"Cofetarie Aida","lat":45.78852,"stationId":"SB_B_2-2_B_9"},{"lng":24.15869,"geohash":"u81hmxpf4k","stationName":"Miraslau","lat":45.78589,"stationId":"SB_B_2-2_B_10"},{"lng":24.16576,"geohash":"u81hmykvpp","stationName":"Peco Milea","lat":45.7823,"stationId":"SB_B_2-2_B_11"},{"lng":24.17042,"geohash":"u81hqn8mgt","stationName":"Cofetaria Narcisa","lat":45.78379,"stationId":"SB_B_2-2_B_12"},{"lng":24.17568,"geohash":"u81hqphpyj","stationName":"Sanitas Vasile Aaron","lat":45.78688,"stationId":"SB_B_2-2_B_13"},{"lng":24.1823,"geohash":"u81hqr3p8q","stationName":"Blocuri Indepententa 2","lat":45.78822,"stationId":"SB_B_2-2_B_14"},{"lng":24.18785,"geohash":"u81hqrt03v","stationName":"Independenta 2","lat":45.78834,"stationId":"SB_B_2-2_B_15"},{"lng":24.19162,"geohash":"u81hqrxb1x","stationName":"Irmes","lat":45.78831,"stationId":"SB_B_2-2_B_16"},{"lng":24.2083,"geohash":"u81hwb5cw3","stationName":"Podului 2","lat":45.79128,"stationId":"SB_B_2-2_B_17"},{"lng":24.20349,"geohash":"u81hwb8qq4","stationName":"Scandia ","lat":45.79485,"stationId":"SB_B_2-2_B_18"}],"routeWayPoints":[],"routeWayPointsEncoded":"ippvGcqjrC?DM@g@N[@gBMeD_As@OwAWyCa@oCWiA[sCoA_Ae@mP}I?c@IMzAqHZeCn@eDd@{A^q@\\g@b@c@h@a@d@UnAa@tAIvCI`APh@^LDHCFKXUv@@^HFD`@KRAbEb@tDt@JEBOSoBFsGIyE@]l@aDZgAn@mAp@iBDDNBRIF]CYGKBmCHo@Tw@fB}Bt@mAn@{@^W|@QLBHHd@nCfArIXGlAm@dC}AhAo@`Ae@xCm@zAbC`@z@dAdDh@pBx@|BxDzHnI~SnDxHFd@l@rAARHVFHJBJAPQBURUlEkEr@i@LFLAJKDQAUCGb@gAVyA^_BfHcZ|AkEvDgLnAcDfUqj@Ig@mVak@aBqD_AmA}BoCu@g@WKyAUg@AEGKEM?y@aAcCgG[}AEgAHw@Le@t@iB^m@v@_Bd@oAXoAFiA@yAk@kz@NLHR@\\Eb@Qb@OgTG_CgBqWoAqPi@_Iu@eI_@cCQaA_@q@eAmEm@mDGq@i@XaAbCsG|HaCzC]VwEvH","routeName":"B_2-2_B"}},{"deviceType":"B","onlyOneRoute":false,"color":"8f4099","routeForward":{"duration":"00:16","name":"Valea Aurie - Gara","moveDirection":"F","stations":[{"lng":24.12493,"geohash":"u81hkgz4xd","stationName":"Valea Aurie","lat":45.76811,"stationId":"SB_B_5_F_0"},{"lng":24.13298,"geohash":"u81hm5mhg0","stationName":"Cimitirul Eroilor 1","lat":45.76574,"stationId":"SB_B_5_F_1"},{"lng":24.13837,"geohash":"u81hmk1p8z","stationName":"Cimitir 1","lat":45.77037,"stationId":"SB_B_5_F_2"},{"lng":24.14061,"geohash":"u81hmkdwkz","stationName":"Tursib 1","lat":45.7729,"stationId":"SB_B_5_F_3"},{"lng":24.14128,"geohash":"u81hmm74ut","stationName":"Scoala Generala Nr.16\/2","lat":45.77641,"stationId":"SB_B_5_F_4"},{"lng":24.13612,"geohash":"u81hmjz7hm","stationName":"Scoala Militara 1","lat":45.7792,"stationId":"SB_B_5_F_5"},{"lng":24.13878,"geohash":"u81hmq9k4m","stationName":"Parcul Sub Arini","lat":45.78349,"stationId":"SB_B_5_F_6"},{"lng":24.14133,"geohash":"u81hmr71vu","stationName":"Bazin Olimpia","lat":45.78722,"stationId":"SB_B_5_F_7"},{"lng":24.14663,"geohash":"u81ht2p43r","stationName":"Casa Armatei","lat":45.79144,"stationId":"SB_B_5_F_8"},{"lng":24.14993,"geohash":"u81ht817yj","stationName":"Teatru","lat":45.79169,"stationId":"SB_B_5_F_9"},{"lng":24.15652,"geohash":"u81ht8y0p8","stationName":"Spitalul Judetean","lat":45.79514,"stationId":"SB_B_5_F_10"},{"lng":24.16064,"geohash":"u81htc14ze","stationName":"Simerom","lat":45.797,"stationId":"SB_B_5_F_11"},{"lng":24.16146,"geohash":"u81htc9ffy","stationName":"Gara","lat":45.79976,"stationId":"SB_B_5_F_12"}],"routeWayPoints":[],"routeWayPointsEncoded":"qajvGq{frC}@_@zAmJ\\{BFm@A_AKq@Qk@u@_BKc@Gk@Am@Be@Hg@Ne@r@eAbBwAbAy@hAs@|AWh@WTQd@k@z@oAgHmI}I}JcUsV}AwAcBkAePeKyElQINiAt@a@\\Yb@Sh@mDdQMx@c@y@u^kRuHwDaDcBw@g@cIaJqEcH[m@eJcLgAyBWgAEg@B[L_@dAsAt@m@J?RMF[C]IKIES@o@aAWYoDyH_J_UiD{Gy@}BmBcHg@}BM{@Gy@?]I]MU_@_@sAcBa@m@q@{A{@cBA_@Ig@cCaFg@WUC]R{EnG","routeName":"B_5_F"},"name":"Valea Aurie - Gara","lineNumber":"5","routeBackward":{"duration":"00:18","name":"Gara - Valea Aurie","moveDirection":"B","stations":[{"lng":24.16146,"geohash":"u81htc9ffy","stationName":"Gara","lat":45.79976,"stationId":"SB_B_5_B_0"},{"lng":24.15815,"geohash":"u81ht8zmms","stationName":"Parcul Tineretului","lat":45.79606,"stationId":"SB_B_5_B_1"},{"lng":24.15456,"geohash":"u81ht8sg4n","stationName":"Muzeul de Stiinte Naturale","lat":45.79431,"stationId":"SB_B_5_B_2"},{"lng":24.15093,"geohash":"u81ht860m7","stationName":"Nufarul","lat":45.79245,"stationId":"SB_B_5_B_3"},{"lng":24.14718,"geohash":"u81ht2pmy5","stationName":"A. Saguna","lat":45.79202,"stationId":"SB_B_5_B_4"},{"lng":24.14036,"geohash":"u81hmr4kzj","stationName":"Sibdress","lat":45.78637,"stationId":"SB_B_5_B_5"},{"lng":24.13871,"geohash":"u81hmq9k8t","stationName":"Arsenal","lat":45.78358,"stationId":"SB_B_5_B_6"},{"lng":24.13613,"geohash":"u81hmjzkst","stationName":"Bulevardul Victoriei","lat":45.77946,"stationId":"SB_B_5_B_7"},{"lng":24.14091,"geohash":"u81hmm6g7f","stationName":"Scoala Generala Nr.16\/1","lat":45.77648,"stationId":"SB_B_5_B_8"},{"lng":24.14151,"geohash":"u81hmkgr9g","stationName":"Tursib 2","lat":45.77447,"stationId":"SB_B_5_B_9"},{"lng":24.13851,"geohash":"u81hmk35hj","stationName":"Cimitir 2","lat":45.77096,"stationId":"SB_B_5_B_10"},{"lng":24.13299,"geohash":"u81hm5mne7","stationName":"Cimitirul Eroilor 2","lat":45.76606,"stationId":"SB_B_5_B_11"},{"lng":24.12493,"geohash":"u81hkgz4xd","stationName":"Valea Aurie","lat":45.76811,"stationId":"SB_B_5_B_12"}],"routeWayPoints":[],"routeWayPointsEncoded":"ggpvG}_nrCACSZG`@d@jDL~AtBjN^A^OpG{DvD_AF@~@xAjA~B~B~H\\~@nEbJzE|LzCjHnBbEFd@l@rA?XiAhAm@pAc@jAkGvMm@bBDTbE~D`@t@h@`BLRxFdDn@h@lAnBl@rA^WdAqAbEsFVi@nIlJtAz@nKnF~_@bSb@x@dEuSTg@Z]vA_AHM~EuQtJfGrGhE|AvAxXpZhE|EdInJ{@nAm@r@w@`@}AVMF{@j@gDpCs@dAOd@If@Cd@@l@Fj@Jb@t@~APj@Jp@@~@\\fBvB|@uBbMwAk@","routeName":"B_5_B"}},{"deviceType":"B","onlyOneRoute":false,"color":"8f4099","routeForward":{"duration":"00:00","name":"Turnisor - Compa - Gusterita","moveDirection":"F","stations":[{"lng":24.10995,"geohash":"u81hkwhrf8","stationName":"Zavoi","lat":45.78136,"stationId":"SB_B_10_F_0"},{"lng":24.11257,"geohash":"u81hkwwjz9","stationName":"Asachi 1","lat":45.78377,"stationId":"SB_B_10_F_1"},{"lng":24.11595,"geohash":"u81hkz09qq","stationName":"Piata Iancu de Hunedoara 1","lat":45.78577,"stationId":"SB_B_10_F_2"},{"lng":24.11834,"geohash":"u81hkzdmqp","stationName":"Scoala Generala Nr.10 \/1","lat":45.78921,"stationId":"SB_B_10_F_3"},{"lng":24.12295,"geohash":"u81hsbmy92","stationName":"Bosch","lat":45.79351,"stationId":"SB_B_10_F_4"},{"lng":24.13038,"geohash":"u81ht07hyw","stationName":"Lidl","lat":45.79324,"stationId":"SB_B_10_F_5"},{"lng":24.13502,"geohash":"u81ht0q8fd","stationName":"Polsib 1","lat":45.79253,"stationId":"SB_B_10_F_6"},{"lng":24.14078,"geohash":"u81ht26c2c","stationName":"Alba Iulia","lat":45.79261,"stationId":"SB_B_10_F_7"},{"lng":24.14663,"geohash":"u81ht2p43r","stationName":"Casa Armatei","lat":45.79144,"stationId":"SB_B_10_F_8"},{"lng":24.14993,"geohash":"u81ht817yj","stationName":"Teatru","lat":45.79169,"stationId":"SB_B_10_F_9"},{"lng":24.15652,"geohash":"u81ht8y0p8","stationName":"Spitalul Judetean","lat":45.79514,"stationId":"SB_B_10_F_10"},{"lng":24.16064,"geohash":"u81htc14ze","stationName":"Simerom","lat":45.797,"stationId":"SB_B_10_F_11"},{"lng":24.16816,"geohash":"u81htcwsnc","stationName":"Strungului","lat":45.79995,"stationId":"SB_B_10_F_12"},{"lng":24.17355,"geohash":"u81hw14tst","stationName":"Compa I","lat":45.79748,"stationId":"SB_B_10_F_13"},{"lng":24.17701,"geohash":"u81hw1j0v0","stationName":"Compa II\/ 1","lat":45.79664,"stationId":"SB_B_10_F_14"},{"lng":24.184,"geohash":"u81hw2drbn","stationName":"Sembraz","lat":45.79513,"stationId":"SB_B_10_F_15"}],"routeWayPoints":[],"routeWayPointsEncoded":"gtlvGo}crCABqFmCQMe@k@wB_EaBmDUq@k@{BkC}KQYk@UMe@GIWCW^WDMAu@b@cBWe@Oq@a@iEwDeCgC}AiByCoCkByAgAq@_CgA_IkDWOs@s@IOGu@ImEDgEfBeZZD?G?F[EBiAGkAw@iIBeBFQ?UEQDmAZgCH]B?JIDUC[BkBvAmLjAaL^yCNmBA}@Ei@I_@wCgHk@}Ae@cAc@kAoB{GQu@Cm@He@Z_@RQLGjDbDtHwK`@q@w@mAk@oA[yA?g@Ni@l@w@n@q@\\WPAPQB]AMOUMEKBo@cAWWuDcIqHiRq@yA}CiG]_A_C_I{@}DOqA@YC]KWSSiCiDqNaZa@_A{@aCwCuJzAcBtBmC`BiCf@eBzA}JlAj@l@kDdF_]pAiJlEq]","routeName":"B_10_F"},"name":"Turnisor - Compa - Gusterita","lineNumber":"10","routeBackward":{"duration":"00:00","name":"Gusterita - Compa - Turnisor","moveDirection":"B","stations":[{"lng":24.18409,"geohash":"u81hw2f26h","stationName":"Sembraz","lat":45.7952,"stationId":"SB_B_10_B_0"},{"lng":24.17701,"geohash":"u81hw1j0v0","stationName":"Compa II\/ 1","lat":45.79664,"stationId":"SB_B_10_B_1"},{"lng":24.16659,"geohash":"u81htctw46","stationName":"Treboniu Aurelian","lat":45.8003,"stationId":"SB_B_10_B_2"},{"lng":24.16098,"geohash":"u81htc1kzd","stationName":"Electrica","lat":45.79734,"stationId":"SB_B_10_B_3"},{"lng":24.15815,"geohash":"u81ht8zmms","stationName":"Parcul Tineretului","lat":45.79606,"stationId":"SB_B_10_B_4"},{"lng":24.15456,"geohash":"u81ht8sg4n","stationName":"Muzeul de Stiinte Naturale","lat":45.79431,"stationId":"SB_B_10_B_5"},{"lng":24.15093,"geohash":"u81ht860m7","stationName":"Nufarul","lat":45.79245,"stationId":"SB_B_10_B_6"},{"lng":24.14718,"geohash":"u81ht2pmy5","stationName":"A. Saguna","lat":45.79202,"stationId":"SB_B_10_B_7"},{"lng":24.14008,"geohash":"u81ht2620e","stationName":"MOL","lat":45.79241,"stationId":"SB_B_10_B_8"},{"lng":24.13373,"geohash":"u81ht0mehs","stationName":"Polsib 2","lat":45.79293,"stationId":"SB_B_10_B_9"},{"lng":24.12997,"geohash":"u81ht06vt5","stationName":"Mc Donald's","lat":45.79335,"stationId":"SB_B_10_B_10"},{"lng":24.12057,"geohash":"u81hsbk4f5","stationName":"Bieltz","lat":45.79288,"stationId":"SB_B_10_B_11"},{"lng":24.11819,"geohash":"u81hkzdm4w","stationName":"Scoala Generala Nr.10 \/2","lat":45.78916,"stationId":"SB_B_10_B_12"},{"lng":24.11624,"geohash":"u81hkz2cv0","stationName":"Piata Iancu de Hunedoara 2","lat":45.7872,"stationId":"SB_B_10_B_13"},{"lng":24.11298,"geohash":"u81hkwwx9n","stationName":"Asachi 2","lat":45.7841,"stationId":"SB_B_10_B_14"},{"lng":24.10995,"geohash":"u81hkwhrf8","stationName":"Zavoi","lat":45.78136,"stationId":"SB_B_10_B_15"}],"routeWayPoints":[],"routeWayPointsEncoded":"eeqvG_qsrCgAdAeExCiCfDgDpIeDfGoCnFiA~E}A`FaAlBe@pA]\\cC`GE`@Hh@h@jBrA`EhA~Br@fAjBxBx[jZxDrAbKpFtA~@d@|@nBhGzAcBtAeB|A{Bb@u@f@eBzA}JlAj@l@kDdF_]oFt@mBRU?{DlWy@`BWnB[jBi@tBYp@qC~Dk@l@KEKDEN@TJDd@|@`@lArGxSnN~Yp@zA\\tAXzALfBLXNLF@~@xAjA~B~B~H\\~@rDlHrIhTnDxHFd@l@rA?XiAhAm@pAc@jAkGvMQV[ZeAv@[^Id@Bl@Pt@nBzGDp@?~@DHFD`@Nb@h@z@nBrB`FP|@DbAIpAuCrWu@~Fc@~AIFEN?RDLEr@[nCQl@OLEP?RDRJJ\\zAv@hIFjAAv@iBvZMz@EfAEvFEx@?ZFl@tGxC|@CdF|BfAp@jBxApDfDdApAdCfChEvDp@`@d@Nz@N|ANXCfAWRBTJTRLZdClKj@zBTp@`BlDvB~Dd@j@PLlFjC","routeName":"B_10_B"}},{"deviceType":"B","onlyOneRoute":false,"color":"8f4099","routeForward":{"duration":"00:31","name":"Turnisor - Compa - Tabacarie","moveDirection":"F","stations":[{"lng":24.10995,"geohash":"u81hkwhrf8","stationName":"Zavoi","lat":45.78136,"stationId":"SB_B_10-3_F_0"},{"lng":24.11257,"geohash":"u81hkwwjz9","stationName":"Asachi 1","lat":45.78377,"stationId":"SB_B_10-3_F_1"},{"lng":24.11595,"geohash":"u81hkz09qq","stationName":"Piata Iancu de Hunedoara 1","lat":45.78577,"stationId":"SB_B_10-3_F_2"},{"lng":24.11834,"geohash":"u81hkzdmqp","stationName":"Scoala Generala Nr.10 \/1","lat":45.78921,"stationId":"SB_B_10-3_F_3"},{"lng":24.12295,"geohash":"u81hsbmy92","stationName":"Bosch","lat":45.79351,"stationId":"SB_B_10-3_F_4"},{"lng":24.13038,"geohash":"u81ht07hyw","stationName":"Lidl","lat":45.79324,"stationId":"SB_B_10-3_F_5"},{"lng":24.13502,"geohash":"u81ht0q8fd","stationName":"Polsib 1","lat":45.79253,"stationId":"SB_B_10-3_F_6"},{"lng":24.14078,"geohash":"u81ht26c2c","stationName":"Alba Iulia","lat":45.79261,"stationId":"SB_B_10-3_F_7"},{"lng":24.14663,"geohash":"u81ht2p43r","stationName":"Casa Armatei","lat":45.79144,"stationId":"SB_B_10-3_F_8"},{"lng":24.14993,"geohash":"u81ht817yj","stationName":"Teatru","lat":45.79169,"stationId":"SB_B_10-3_F_9"},{"lng":24.15652,"geohash":"u81ht8y0p8","stationName":"Spitalul Judetean","lat":45.79514,"stationId":"SB_B_10-3_F_10"},{"lng":24.16064,"geohash":"u81htc14ze","stationName":"Simerom","lat":45.797,"stationId":"SB_B_10-3_F_11"},{"lng":24.16816,"geohash":"u81htcwsnc","stationName":"Strungului","lat":45.79995,"stationId":"SB_B_10-3_F_12"},{"lng":24.17355,"geohash":"u81hw14tst","stationName":"Compa I","lat":45.79748,"stationId":"SB_B_10-3_F_13"},{"lng":24.17701,"geohash":"u81hw1j0v0","stationName":"Compa II\/ 1","lat":45.79664,"stationId":"SB_B_10-3_F_14"},{"lng":24.17279,"geohash":"u81hw1d44f","stationName":"Complex Otetarilor","lat":45.79961,"stationId":"SB_B_10-3_F_15"},{"lng":24.16955,"geohash":"u81htczxr3","stationName":"Balanta 3","lat":45.80188,"stationId":"SB_B_10-3_F_16"},{"lng":24.17203,"geohash":"u81hw49t14","stationName":"Alecu Russo 2","lat":45.80562,"stationId":"SB_B_10-3_F_17"},{"lng":24.17403,"geohash":"u81hw54cpw","stationName":"Pod Gusterita 2","lat":45.8077,"stationId":"SB_B_10-3_F_18"},{"lng":24.17834,"geohash":"u81hw5w5uh","stationName":"Alimentara Gusterita 2","lat":45.81091,"stationId":"SB_B_10-3_F_19"},{"lng":24.1822,"geohash":"u81hw72fyp","stationName":"Smardan 2","lat":45.80938,"stationId":"SB_B_10-3_F_20"},{"lng":24.18577,"geohash":"u81hw7583r","stationName":"Viilor 2","lat":45.80758,"stationId":"SB_B_10-3_F_21"},{"lng":24.18967,"geohash":"u81hw6qqhn","stationName":"Cema","lat":45.80444,"stationId":"SB_B_10-3_F_22"},{"lng":24.19728,"geohash":"u81hw97ym6","stationName":"Tabacarie","lat":45.79897,"stationId":"SB_B_10-3_F_23"}],"routeWayPoints":[],"routeWayPointsEncoded":"qtlvGs}crCA@gFgCQMe@k@wB_EaBmDUq@k@{BkC}KQYk@UMe@OKOAW^WFMCu@b@cBWe@Oq@a@iEwDeCgCeAqAqDgDkByAgAq@_CgA_IkDWOc@a@Ya@Gu@ImEDgEjBu[A{@}@sJBeBFQ?UEQ@m@^gDH]B?JIDUC[BkBvAmLjAaLj@}EDeAIkAQo@oCwGk@}Ae@cAc@kAoB{GQu@Cm@He@Z_@RQLGjDbDtHwK`@q@w@mAk@oA[yA?g@Ni@l@w@n@q@\\WPAPQB]AMOUMEKBo@cAWWuDcIqHiRq@yA`@i@vAdDjEjJ~@lBl@bA}@fAkJsUiD{Gy@}BmBcHg@}BM{@Gy@?]I]MU_@_@sAcBa@m@q@{AoMeX_@y@_@eAeDwKzAcBtBmC`BiCHQ\\sAzA}JlAj@l@kDlA}HvCaS{Dj@aD\\U?{DlWy@`BWnB[jBi@tBYp@kD|EQNECK?IHAH]Ai@a@gCqA{F_DmBs@kA_@y[kZkByBs@gAiA_CsAaEi@kBIi@Da@`BaE`@_A\\]d@qA`AmB|AaFhA_FnCoFdDgGfDqIhCgDdEyCdAYrBYf@SnCuBpAgBbHgKt@qB~G}Mx@kB\\oAQgABYP_@","routeName":"B_10-3_F"},"name":"Turnisor - Compa - Tabacarie","lineNumber":"10-3","routeBackward":{"duration":"00:32","name":"Tabacarie - Compa - Turnisor","moveDirection":"B","stations":[{"lng":24.19728,"geohash":"u81hw97ym6","stationName":"Tabacarie","lat":45.79897,"stationId":"SB_B_10-3_B_0"},{"lng":24.18982,"geohash":"u81hw6qqzs","stationName":"Cema","lat":45.80456,"stationId":"SB_B_10-3_B_1"},{"lng":24.1858,"geohash":"u81hw758cc","stationName":"Viilor 1","lat":45.80763,"stationId":"SB_B_10-3_B_2"},{"lng":24.18184,"geohash":"u81hw72sjs","stationName":"Smardan 1","lat":45.80958,"stationId":"SB_B_10-3_B_3"},{"lng":24.17758,"geohash":"u81hw5tddr","stationName":"Alimentara Gusterita 1","lat":45.81071,"stationId":"SB_B_10-3_B_4"},{"lng":24.17391,"geohash":"u81hw54ckc","stationName":"Pod Gusterita 1","lat":45.80772,"stationId":"SB_B_10-3_B_5"},{"lng":24.17189,"geohash":"u81hw49kvy","stationName":"Alecu Russo 1","lat":45.8056,"stationId":"SB_B_10-3_B_6"},{"lng":24.16964,"geohash":"u81htfpc3q","stationName":"Balanta 2","lat":45.80225,"stationId":"SB_B_10-3_B_7"},{"lng":24.16816,"geohash":"u81htcwsnc","stationName":"Strungului","lat":45.79995,"stationId":"SB_B_10-3_B_8"},{"lng":24.17355,"geohash":"u81hw14tst","stationName":"Compa I","lat":45.79748,"stationId":"SB_B_10-3_B_9"},{"lng":24.17701,"geohash":"u81hw1j0v0","stationName":"Compa II\/ 1","lat":45.79664,"stationId":"SB_B_10-3_B_10"},{"lng":24.17279,"geohash":"u81hw1d44f","stationName":"Complex Otetarilor","lat":45.79961,"stationId":"SB_B_10-3_B_11"},{"lng":24.16972,"geohash":"u81htczf72","stationName":"Libra 1","lat":45.80102,"stationId":"SB_B_10-3_B_12"},{"lng":24.16659,"geohash":"u81htctw46","stationName":"Treboniu Aurelian","lat":45.8003,"stationId":"SB_B_10-3_B_13"},{"lng":24.16098,"geohash":"u81htc1kzd","stationName":"Electrica","lat":45.79734,"stationId":"SB_B_10-3_B_14"},{"lng":24.15815,"geohash":"u81ht8zmms","stationName":"Parcul Tineretului","lat":45.79606,"stationId":"SB_B_10-3_B_15"},{"lng":24.15456,"geohash":"u81ht8sg4n","stationName":"Muzeul de Stiinte Naturale","lat":45.79431,"stationId":"SB_B_10-3_B_16"},{"lng":24.15093,"geohash":"u81ht860m7","stationName":"Nufarul","lat":45.79245,"stationId":"SB_B_10-3_B_17"},{"lng":24.14718,"geohash":"u81ht2pmy5","stationName":"A. Saguna","lat":45.79202,"stationId":"SB_B_10-3_B_18"},{"lng":24.14008,"geohash":"u81ht2620e","stationName":"MOL","lat":45.79241,"stationId":"SB_B_10-3_B_19"},{"lng":24.13373,"geohash":"u81ht0mehs","stationName":"Polsib 2","lat":45.79293,"stationId":"SB_B_10-3_B_20"},{"lng":24.12997,"geohash":"u81ht06vt5","stationName":"Mc Donald's","lat":45.79335,"stationId":"SB_B_10-3_B_21"},{"lng":24.12057,"geohash":"u81hsbk4f5","stationName":"Bieltz","lat":45.79288,"stationId":"SB_B_10-3_B_22"},{"lng":24.11819,"geohash":"u81hkzdm4w","stationName":"Scoala Generala Nr.10 \/2","lat":45.78916,"stationId":"SB_B_10-3_B_23"},{"lng":24.11624,"geohash":"u81hkz2cv0","stationName":"Piata Iancu de Hunedoara 2","lat":45.7872,"stationId":"SB_B_10-3_B_24"},{"lng":24.11298,"geohash":"u81hkwwx9n","stationName":"Asachi 2","lat":45.7841,"stationId":"SB_B_10-3_B_25"},{"lng":24.10995,"geohash":"u81hkwhrf8","stationName":"Zavoi","lat":45.78136,"stationId":"SB_B_10-3_B_26"}],"routeWayPoints":[],"routeWayPointsEncoded":"sbpvGq`urCAAO\\CXPfA]nAu@`BcHfNu@pB{@hAuFnIcAtAoCtBa@NuARiBb@eExCiCfDgDpIeDfGoCnFiA~E}A`FaAlBe@pA]\\a@~@aB`EE`@Hh@h@jBrA`EhA~BdAzAxAdBx[jZjA^lBr@zF~CfCpAh@`@j@\\f@`AlBdGh@i@xCsDnB}Cf@eBzA}JlAj@jAeHfEeY}Fv@_BPU?{DlWy@`BWnB[jBi@tBYp@kD|EQNECK?IHARFND@f@`AdHbUbAdCjNtYb@fBZxB@f@H\\NPNHzAbC`@z@dAdDh@pBx@|BhDzGtIhThAjCnBbEFd@l@rA?XiAhAm@pAc@jAuBrEsC|Fa@l@iAx@_@`@KXCh@Hl@zBzHDh@A~@BLFF\\LNJZ`@Zp@nCvGPn@HjAEdAk@|EkA`LwAlLc@~AMLCRFh@a@jDQr@KFGNCPBTFNFB\\zA~@dK?h@kBt[Q~AIhHEp@Dv@DNhGnCRDr@CdF|BfAp@jBxApDfDdApAdCfChEvDp@`@d@Nz@N|ANXCfAWRBTJTRLZfDlN^lA`BlDvB~Dd@j@PLzFrC","routeName":"B_10-3_B"}},{"deviceType":"B","onlyOneRoute":false,"color":"8f4099","routeForward":{"duration":"00:22","name":"Cedonia - Continental","moveDirection":"F","stations":[{"lng":24.15739,"geohash":"u81hmwnu7b","stationName":"Cedonia","lat":45.78076,"stationId":"SB_B_11_F_0"},{"lng":24.16243,"geohash":"u81hmy6w3k","stationName":"Complexul Luptei","lat":45.7825,"stationId":"SB_B_11_F_1"},{"lng":24.16181,"geohash":"u81hmyf1fz","stationName":"Moldoveanu","lat":45.78449,"stationId":"SB_B_11_F_2"},{"lng":24.15237,"geohash":"u81hmxe1rh","stationName":"Politie","lat":45.78851,"stationId":"SB_B_11_F_3"},{"lng":24.14718,"geohash":"u81ht2pmy5","stationName":"A. Saguna","lat":45.79202,"stationId":"SB_B_11_F_4"},{"lng":24.14008,"geohash":"u81ht2620e","stationName":"MOL","lat":45.79241,"stationId":"SB_B_11_F_5"},{"lng":24.13373,"geohash":"u81ht0mehs","stationName":"Polsib 2","lat":45.79293,"stationId":"SB_B_11_F_6"},{"lng":24.12997,"geohash":"u81ht06vt5","stationName":"Mc Donald's","lat":45.79335,"stationId":"SB_B_11_F_7"},{"lng":24.12256,"geohash":"u81hsbmxb2","stationName":"Turnisor","lat":45.79372,"stationId":"SB_B_11_F_8"},{"lng":24.10917,"geohash":"u81hs87b8q","stationName":"Ambient","lat":45.79251,"stationId":"SB_B_11_F_9"},{"lng":24.10423,"geohash":"u81hs80ht6","stationName":"Simpa 2","lat":45.7918,"stationId":"SB_B_11_F_10"},{"lng":24.09702,"geohash":"u81hkrfyv3","stationName":"IOMCOOP","lat":45.79081,"stationId":"SB_B_11_F_11"},{"lng":24.09252,"geohash":"u81hkpzek3","stationName":"Aeroport 2","lat":45.79021,"stationId":"SB_B_11_F_12"},{"lng":24.08755,"geohash":"u81hkpsp0t","stationName":"Bricomat","lat":45.7895,"stationId":"SB_B_11_F_13"},{"lng":24.0836,"geohash":"u81hkp95uw","stationName":"RAR","lat":45.78895,"stationId":"SB_B_11_F_14"},{"lng":24.07745,"geohash":"u81hebktt5","stationName":"SNR Rulmenti","lat":45.79335,"stationId":"SB_B_11_F_15"},{"lng":24.07706,"geohash":"u81heck2kh","stationName":"Continental","lat":45.79795,"stationId":"SB_B_11_F_16"}],"routeWayPoints":[],"routeWayPointsEncoded":"}plvGefmrCC@{@oAfAeBwKs\\IQ{@aAa@_ADaAeNv\\oAjDmChI}AjE}Hf\\o@pBg@z@EAQLGP?JSL_FzEe@RQGKBIHEJCZ@DiAhAm@pAc@jAkGvMQV[ZeAv@[^Id@Bl@Pt@nBzGDp@?~@DHFD`@Nb@h@rCxG^~@H^Dh@@|@OlB_@xCkA`LwAlLc@~AMLCRFh@[tCKj@K\\KFGNCPBTFNFB\\zAx@~ID`AC|@gBdZMz@EfAEvFEtANtAPlFNrPdB|WzPh`C\\lFE@ILAPDNHDJ?bHv`AFrAQbDU~BYd@e@HcAVes@xE?UK@I_@m@F","routeName":"B_11_F"},"name":"Cedonia - Continental","lineNumber":"11","routeBackward":{"duration":"00:33","name":"Continental - Cedonia","moveDirection":"B","stations":[{"lng":24.07706,"geohash":"u81heck2kh","stationName":"Continental","lat":45.79795,"stationId":"SB_B_11_B_0"},{"lng":24.08645,"geohash":"u81hs174yy","stationName":"Harting","lat":45.79839,"stationId":"SB_B_11_B_1"},{"lng":24.08704,"geohash":"u81hs15dss","stationName":"Biomin","lat":45.79696,"stationId":"SB_B_11_B_2"},{"lng":24.08855,"geohash":"u81hs0s9pu","stationName":" Phoenix M.P. 1","lat":45.79396,"stationId":"SB_B_11_B_3"},{"lng":24.09302,"geohash":"u81hkrb4b1","stationName":"Aeroport 1","lat":45.79012,"stationId":"SB_B_11_B_4"},{"lng":24.09647,"geohash":"u81hkrft8q","stationName":"Vama ","lat":45.79062,"stationId":"SB_B_11_B_5"},{"lng":24.10622,"geohash":"u81hs81te8","stationName":"Simpa 1","lat":45.79196,"stationId":"SB_B_11_B_6"},{"lng":24.10914,"geohash":"u81hs85xzd","stationName":"Metro","lat":45.79236,"stationId":"SB_B_11_B_7"},{"lng":24.12295,"geohash":"u81hsbmy92","stationName":"Bosch","lat":45.79351,"stationId":"SB_B_11_B_8"},{"lng":24.13038,"geohash":"u81ht07hyw","stationName":"Lidl","lat":45.79324,"stationId":"SB_B_11_B_9"},{"lng":24.13502,"geohash":"u81ht0q8fd","stationName":"Polsib 1","lat":45.79253,"stationId":"SB_B_11_B_10"},{"lng":24.14078,"geohash":"u81ht26c2c","stationName":"Alba Iulia","lat":45.79261,"stationId":"SB_B_11_B_11"},{"lng":24.14663,"geohash":"u81ht2p43r","stationName":"Casa Armatei","lat":45.79144,"stationId":"SB_B_11_B_12"},{"lng":24.15179,"geohash":"u81hmxdc3q","stationName":"Cofetarie Aida","lat":45.78852,"stationId":"SB_B_11_B_13"},{"lng":24.15869,"geohash":"u81hmxpf4k","stationName":"Miraslau","lat":45.78589,"stationId":"SB_B_11_B_14"},{"lng":24.16576,"geohash":"u81hmykvpp","stationName":"Peco Milea","lat":45.7823,"stationId":"SB_B_11_B_15"},{"lng":24.16572,"geohash":"u81hmykcnn","stationName":"Vasile Milea 2","lat":45.78161,"stationId":"SB_B_11_B_16"},{"lng":24.15909,"geohash":"u81hmv8ngt","stationName":"Piata Rahova 2","lat":45.77847,"stationId":"SB_B_11_B_17"},{"lng":24.15534,"geohash":"u81hmtv7k1","stationName":"Mihai VIteazu","lat":45.77922,"stationId":"SB_B_11_B_18"},{"lng":24.15323,"geohash":"u81hmw5c5p","stationName":"Cofetaria Primavara","lat":45.78024,"stationId":"SB_B_11_B_19"},{"lng":24.14728,"geohash":"u81hmqrs2m","stationName":"Piata Aurel Vlaicu 2","lat":45.78216,"stationId":"SB_B_11_B_20"},{"lng":24.1447,"geohash":"u81hmmv8h6","stationName":"Mihail Sebastian","lat":45.77867,"stationId":"SB_B_11_B_21"},{"lng":24.14432,"geohash":"u81hmmm2gm","stationName":"Dima 2","lat":45.77607,"stationId":"SB_B_11_B_22"},{"lng":24.14863,"geohash":"u81hmsbrzg","stationName":"Calea Cisnadiei","lat":45.77451,"stationId":"SB_B_11_B_23"},{"lng":24.15349,"geohash":"u81hmth135","stationName":"Interex","lat":45.77477,"stationId":"SB_B_11_B_24"},{"lng":24.15725,"geohash":"u81hmtqy88","stationName":"Piata Rahova 1","lat":45.77703,"stationId":"SB_B_11_B_25"},{"lng":24.15739,"geohash":"u81hmwnu7b","stationName":"Cedonia","lat":45.78076,"stationId":"SB_B_11_B_26"}],"routeWayPoints":[],"routeWayPointsEncoded":"}{ovGqp}qCc@FGP@`@K@g@cHqB_[qAmQDsAbGqBhM}DTQLOzEuALo@zAg@xEuBlOkHb@OHRJBHEFQASKMG?[eFqJqqA_Ce]eAqNkBeYSaS@qAN_CAc@M_BCuBB{FjBi[?s@_AgKBeBDG@UCy@D_ATmBLg@HCHO@UCQBkBt@_GtCsWHqAEcAQ}@oDqIOk@c@aAEE}@sC}AoFIm@Bi@JY^a@VOjDbDfGyInAoBw@mAk@oA[yA?g@BOJYl@w@n@q@\\WPAPQBURUlEkEr@i@JFL?JIDO@WEKb@gAVyAlHc[bDoJ`BeFnAkDlTci@h@a@ZGLFl@x@p@jBR`AThBVxDVzBTlA^rAf@jAbA`BbItK~ApBd@fACH?PDV}FxNa@|@QTOBMJIRAP?RDR{Qpd@a@t@M@SPG`@H^FLJDVCpEdDl^~VxJ{^Fa@BoAUaNKqICqAO{AYsAe@mAo@kAy@y@iA{@c@u@cCwEYm@WaA_AkBDO@QMe@SIK@KFMZ@`@BFe@nAaGrNIHWHEDyEgKo@gA","routeName":"B_11_B"}},{"deviceType":"B","onlyOneRoute":false,"color":"8f4099","routeForward":{"duration":"00:17","name":"Piata Rahova - Sembraz","moveDirection":"F","stations":[{"lng":24.15728,"geohash":"u81hmtwu13","stationName":"Piata Rahova 3","lat":45.77798,"stationId":"SB_B_12_F_0"},{"lng":24.15323,"geohash":"u81hmw5c5p","stationName":"Cofetaria Primavara","lat":45.78024,"stationId":"SB_B_12_F_1"},{"lng":24.14829,"geohash":"u81hmw85pc","stationName":"Piata Aurel Vlaicu 1","lat":45.7833,"stationId":"SB_B_12_F_2"},{"lng":24.14947,"geohash":"u81hmx1p56","stationName":"C.E.C.","lat":45.78674,"stationId":"SB_B_12_F_3"},{"lng":24.14993,"geohash":"u81ht817yj","stationName":"Teatru","lat":45.79169,"stationId":"SB_B_12_F_4"},{"lng":24.15652,"geohash":"u81ht8y0p8","stationName":"Spitalul Judetean","lat":45.79514,"stationId":"SB_B_12_F_5"},{"lng":24.16064,"geohash":"u81htc14ze","stationName":"Simerom","lat":45.797,"stationId":"SB_B_12_F_6"},{"lng":24.16816,"geohash":"u81htcwsnc","stationName":"Strungului","lat":45.79995,"stationId":"SB_B_12_F_7"},{"lng":24.17355,"geohash":"u81hw14tst","stationName":"Compa I","lat":45.79748,"stationId":"SB_B_12_F_8"},{"lng":24.17701,"geohash":"u81hw1j0v0","stationName":"Compa II\/ 1","lat":45.79664,"stationId":"SB_B_12_F_9"},{"lng":24.184,"geohash":"u81hw2drbn","stationName":"Sembraz","lat":45.79513,"stationId":"SB_B_12_F_10"}],"routeWayPoints":[],"routeWayPointsEncoded":"o_lvGkfmrCAAr@gBFITCHIFM@e@GSSMIAKDOTCb@DNeDjIyBjFQTOBMJIRAd@DR{Qpd@a@t@M@SP{@Hy@@gHcB}RoFaAIwAAYe@CWBk@VyAe@tAg@z@EAMFGLCTSL_FzEe@RQGKBo@cAWWcDeHuDcJmCcHoEcJ]_A_C_Ik@iC_@eC@YC]KWSSiCiDqNaZ}@yBwD}L|AeBrBkC`BiCf@eBzA}JlAj@l@kDbGaa@xFwc@Ls@ZJ","routeName":"B_12_F"},"name":"Piata Rahova - Sembraz","lineNumber":"12","routeBackward":{"duration":"00:17","name":"Sembraz - Piata Rahova","moveDirection":"B","stations":[{"lng":24.18409,"geohash":"u81hw2f26h","stationName":"Sembraz","lat":45.7952,"stationId":"SB_B_12_B_0"},{"lng":24.17759,"geohash":"u81hw1j8ds","stationName":"Compa II\/2","lat":45.79662,"stationId":"SB_B_12_B_1"},{"lng":24.17279,"geohash":"u81hw1d44f","stationName":"Complex Otetarilor","lat":45.79961,"stationId":"SB_B_12_B_2"},{"lng":24.16972,"geohash":"u81htczf72","stationName":"Libra 1","lat":45.80102,"stationId":"SB_B_12_B_3"},{"lng":24.16659,"geohash":"u81htctw46","stationName":"Treboniu Aurelian","lat":45.8003,"stationId":"SB_B_12_B_4"},{"lng":24.16098,"geohash":"u81htc1kzd","stationName":"Electrica","lat":45.79734,"stationId":"SB_B_12_B_5"},{"lng":24.15815,"geohash":"u81ht8zmms","stationName":"Parcul Tineretului","lat":45.79606,"stationId":"SB_B_12_B_6"},{"lng":24.15456,"geohash":"u81ht8sg4n","stationName":"Muzeul de Stiinte Naturale","lat":45.79431,"stationId":"SB_B_12_B_7"},{"lng":24.15093,"geohash":"u81ht860m7","stationName":"Nufarul","lat":45.79245,"stationId":"SB_B_12_B_8"},{"lng":24.14882,"geohash":"u81hmx08u7","stationName":"Lomonosov","lat":45.78567,"stationId":"SB_B_12_B_9"},{"lng":24.14968,"geohash":"u81hmw362m","stationName":"Bloc 1 Mihai Viteazu","lat":45.78182,"stationId":"SB_B_12_B_10"},{"lng":24.15318,"geohash":"u81hmw5b1c","stationName":"Bloc 9 Mihai Viteazu","lat":45.78004,"stationId":"SB_B_12_B_11"},{"lng":24.15728,"geohash":"u81hmtwu13","stationName":"Piata Rahova 3","lat":45.77798,"stationId":"SB_B_12_B_12"}],"routeWayPoints":[],"routeWayPointsEncoded":"wjovGwmrrCcFd`@gAzH{Dj@aD\\U?sDvVGTy@`BYxBY`Bi@tBYp@kD|EQNECK?IHARj@bA\\|@lEvNpA|DnN~Yp@zA\\tAXzALfBLXNLF@~@xAjA~B~B~H\\~@nEbJbIfSbDdHFd@l@rAALDVPRJ?HCNU@Oh@k@vDuDr@i@DDLBdB[vA@|@JjPrEpHjBv@NvBt@FLJDVCHIFMB_@f@cCtP_b@R[R?JEJOF[A[BYLg@xEqL","routeName":"B_12_B"}},{"deviceType":"B","onlyOneRoute":false,"color":"8f4099","routeForward":{"duration":"00:16","name":"Gara - Dumbrava","moveDirection":"F","stations":[{"lng":24.16146,"geohash":"u81htc9ffy","stationName":"Gara","lat":45.79976,"stationId":"SB_B_13_F_0"},{"lng":24.15815,"geohash":"u81ht8zmms","stationName":"Parcul Tineretului","lat":45.79606,"stationId":"SB_B_13_F_1"},{"lng":24.15456,"geohash":"u81ht8sg4n","stationName":"Muzeul de Stiinte Naturale","lat":45.79431,"stationId":"SB_B_13_F_2"},{"lng":24.15093,"geohash":"u81ht860m7","stationName":"Nufarul","lat":45.79245,"stationId":"SB_B_13_F_3"},{"lng":24.14882,"geohash":"u81hmx08u7","stationName":"Lomonosov","lat":45.78567,"stationId":"SB_B_13_F_4"},{"lng":24.14728,"geohash":"u81hmqrs2m","stationName":"Piata Aurel Vlaicu 2","lat":45.78216,"stationId":"SB_B_13_F_5"},{"lng":24.1447,"geohash":"u81hmmv8h6","stationName":"Mihail Sebastian","lat":45.77867,"stationId":"SB_B_13_F_6"},{"lng":24.14151,"geohash":"u81hmkgr9g","stationName":"Tursib 2","lat":45.77447,"stationId":"SB_B_13_F_7"},{"lng":24.13851,"geohash":"u81hmk35hj","stationName":"Cimitir 2","lat":45.77096,"stationId":"SB_B_13_F_8"},{"lng":24.13299,"geohash":"u81hm5mne7","stationName":"Cimitirul Eroilor 2","lat":45.76606,"stationId":"SB_B_13_F_9"},{"lng":24.12627,"geohash":"u81hm42jqg","stationName":"Dumbrava 2","lat":45.76035,"stationId":"SB_B_13_F_10"}],"routeWayPoints":[],"routeWayPointsEncoded":"mgpvG_`nrC?BOTG`@j@hDH|Al@zDbA~HXGlAm@pFcDn@UhCg@~@xAjA~B~B~H\\~@|ChGp@xAdJhU`CbFFd@l@rAALDVPRJ?HCNU@Oh@k@vDuDr@i@DDLBdB[vA@|@JjPrEhJzBvBt@BFJHH@PCtB~Aha@dYpTlNbBjA|AvAp^x`@vIdK`GpHdTnXnAxB","routeName":"B_13_F"},"name":"Gara - Dumbrava","lineNumber":"13","routeBackward":{"duration":"00:16","name":"Dumbrava - Gara","moveDirection":"B","stations":[{"lng":24.12613,"geohash":"u81hm42h5s","stationName":"Dumbrava 1","lat":45.76014,"stationId":"SB_B_13_B_0"},{"lng":24.13298,"geohash":"u81hm5mhg0","stationName":"Cimitirul Eroilor 1","lat":45.76574,"stationId":"SB_B_13_B_1"},{"lng":24.13837,"geohash":"u81hmk1p8z","stationName":"Cimitir 1","lat":45.77037,"stationId":"SB_B_13_B_2"},{"lng":24.14061,"geohash":"u81hmkdwkz","stationName":"Tursib 1","lat":45.7729,"stationId":"SB_B_13_B_3"},{"lng":24.1434,"geohash":"u81hmmktjz","stationName":"Dima 1","lat":45.77681,"stationId":"SB_B_13_B_4"},{"lng":24.14546,"geohash":"u81hmmyhvv","stationName":"Anton Pann","lat":45.7795,"stationId":"SB_B_13_B_5"},{"lng":24.14829,"geohash":"u81hmw85pc","stationName":"Piata Aurel Vlaicu 1","lat":45.7833,"stationId":"SB_B_13_B_6"},{"lng":24.14947,"geohash":"u81hmx1p56","stationName":"C.E.C.","lat":45.78674,"stationId":"SB_B_13_B_7"},{"lng":24.14993,"geohash":"u81ht817yj","stationName":"Teatru","lat":45.79169,"stationId":"SB_B_13_B_8"},{"lng":24.15652,"geohash":"u81ht8y0p8","stationName":"Spitalul Judetean","lat":45.79514,"stationId":"SB_B_13_B_9"},{"lng":24.16064,"geohash":"u81htc14ze","stationName":"Simerom","lat":45.797,"stationId":"SB_B_13_B_10"},{"lng":24.16146,"geohash":"u81htc9ffy","stationName":"Gara","lat":45.79976,"stationId":"SB_B_13_B_11"}],"routeWayPoints":[],"routeWayPointsEncoded":"_phvGybgrCmBgDsLmOsNsQeIoJcSwTMw@Se@a@[k@BoGaH}AwAcBkAqTmNq`@qXWSi@m@QYc@_AAWM]IEMAQFIJ{@Hy@@sCo@eJaC{K}C}@KkBCu@KCSSQEAMDILCVOHiEdEc@^[LIES@o@aAWYoBcEoEqKgDwIoEcJ]_A_C_Ik@iC_@eC@YC]KWSSiCiDmB_EKgAcCaFc@UYE]RyEjG","routeName":"B_13_B"}},{"deviceType":"B","onlyOneRoute":false,"color":"8f4099","routeForward":{"duration":"00:18","name":"Gara - Muzeul Satului","moveDirection":"F","stations":[{"lng":24.16146,"geohash":"u81htc9ffy","stationName":"Gara","lat":45.79976,"stationId":"SB_B_13-1_F_0"},{"lng":24.15815,"geohash":"u81ht8zmms","stationName":"Parcul Tineretului","lat":45.79606,"stationId":"SB_B_13-1_F_1"},{"lng":24.15456,"geohash":"u81ht8sg4n","stationName":"Muzeul de Stiinte Naturale","lat":45.79431,"stationId":"SB_B_13-1_F_2"},{"lng":24.15093,"geohash":"u81ht860m7","stationName":"Nufarul","lat":45.79245,"stationId":"SB_B_13-1_F_3"},{"lng":24.14882,"geohash":"u81hmx08u7","stationName":"Lomonosov","lat":45.78567,"stationId":"SB_B_13-1_F_4"},{"lng":24.14728,"geohash":"u81hmqrs2m","stationName":"Piata Aurel Vlaicu 2","lat":45.78216,"stationId":"SB_B_13-1_F_5"},{"lng":24.1447,"geohash":"u81hmmv8h6","stationName":"Mihail Sebastian","lat":45.77867,"stationId":"SB_B_13-1_F_6"},{"lng":24.14151,"geohash":"u81hmkgr9g","stationName":"Tursib 2","lat":45.77447,"stationId":"SB_B_13-1_F_7"},{"lng":24.13851,"geohash":"u81hmk35hj","stationName":"Cimitir 2","lat":45.77096,"stationId":"SB_B_13-1_F_8"},{"lng":24.13299,"geohash":"u81hm5mne7","stationName":"Cimitirul Eroilor 2","lat":45.76606,"stationId":"SB_B_13-1_F_9"},{"lng":24.12627,"geohash":"u81hm42jqg","stationName":"Dumbrava 2","lat":45.76035,"stationId":"SB_B_13-1_F_10"},{"lng":24.11646,"geohash":"u81hkc30fh","stationName":"Muzeul Satului","lat":45.75409,"stationId":"SB_B_13-1_F_11"}],"routeWayPoints":[],"routeWayPointsEncoded":"ggpvGa`nrCUZG`@j@hDH|Al@zDbA~HXGlAm@dC}AhAo@`Ae@x@S~AYzAbC`@z@Vr@vAbFx@|BtElJrHlRnDxHFd@l@rAARBJLTJBJAPQBURUlEkEr@i@PHfB[bA?`AHdDz@zGlBnIxBrCn@vBt@BFJHH@PCtB~Aha@dYpTlNbBjA|AvA~JvKpR`TtEpF`CrC`GpHdTnX|AnCh@jAzAzF`AjE~DdPTl@d@v@|NtQ`AdAnBtAtChB@BD{@AEGKg@WI@","routeName":"B_13-1_F"},"name":"Gara - Muzeul Satului","lineNumber":"13-1","routeBackward":{"duration":"00:18","name":"Muzeul Satului - Gara","moveDirection":"B","stations":[{"lng":24.11646,"geohash":"u81hkc30fh","stationName":"Muzeul Satului","lat":45.75409,"stationId":"SB_B_13-1_B_0"},{"lng":24.12613,"geohash":"u81hm42h5s","stationName":"Dumbrava 1","lat":45.76014,"stationId":"SB_B_13-1_B_1"},{"lng":24.13298,"geohash":"u81hm5mhg0","stationName":"Cimitirul Eroilor 1","lat":45.76574,"stationId":"SB_B_13-1_B_2"},{"lng":24.13837,"geohash":"u81hmk1p8z","stationName":"Cimitir 1","lat":45.77037,"stationId":"SB_B_13-1_B_3"},{"lng":24.14061,"geohash":"u81hmkdwkz","stationName":"Tursib 1","lat":45.7729,"stationId":"SB_B_13-1_B_4"},{"lng":24.1434,"geohash":"u81hmmktjz","stationName":"Dima 1","lat":45.77681,"stationId":"SB_B_13-1_B_5"},{"lng":24.14546,"geohash":"u81hmmyhvv","stationName":"Anton Pann","lat":45.7795,"stationId":"SB_B_13-1_B_6"},{"lng":24.14829,"geohash":"u81hmw85pc","stationName":"Piata Aurel Vlaicu 1","lat":45.7833,"stationId":"SB_B_13-1_B_7"},{"lng":24.14947,"geohash":"u81hmx1p56","stationName":"C.E.C.","lat":45.78674,"stationId":"SB_B_13-1_B_8"},{"lng":24.14993,"geohash":"u81ht817yj","stationName":"Teatru","lat":45.79169,"stationId":"SB_B_13-1_B_9"},{"lng":24.15652,"geohash":"u81ht8y0p8","stationName":"Spitalul Judetean","lat":45.79514,"stationId":"SB_B_13-1_B_10"},{"lng":24.16064,"geohash":"u81htc14ze","stationName":"Simerom","lat":45.797,"stationId":"SB_B_13-1_B_11"},{"lng":24.16146,"geohash":"u81htc9ffy","stationName":"Gara","lat":45.79976,"stationId":"SB_B_13-1_B_12"}],"routeWayPoints":[],"routeWayPointsEncoded":"}igvGqferC[^uCkBu@q@ePaSe@w@Um@mIi]_@gAwBwDg\\ab@eIoJiE}EyXqZ}AwAmLwH{EyC}d@y[WSi@m@QYc@_AAWEQQQU?SP{@Hy@@gHcBmRkF}@KkBCw@KEUOOM?KHG^OHiEdEc@^[LIES@o@aAWYoDyHsHmRuEmJy@}BwAcF}@}DM{@Gy@?]I]MU_@_@sAcBa@m@q@{A{@cBA_@Ig@cCaFg@WUC]RyEjG","routeName":"B_13-1_B"}},{"deviceType":"B","onlyOneRoute":false,"color":"8f4099","routeForward":{"duration":"00:21","name":"Valea Aurie - Hotel Libra","moveDirection":"F","stations":[{"lng":24.12493,"geohash":"u81hkgz4xd","stationName":"Valea Aurie","lat":45.76811,"stationId":"SB_B_14_F_0"},{"lng":24.13298,"geohash":"u81hm5mhg0","stationName":"Cimitirul Eroilor 1","lat":45.76574,"stationId":"SB_B_14_F_1"},{"lng":24.13837,"geohash":"u81hmk1p8z","stationName":"Cimitir 1","lat":45.77037,"stationId":"SB_B_14_F_2"},{"lng":24.14061,"geohash":"u81hmkdwkz","stationName":"Tursib 1","lat":45.7729,"stationId":"SB_B_14_F_3"},{"lng":24.14432,"geohash":"u81hmmm2gm","stationName":"Dima 2","lat":45.77607,"stationId":"SB_B_14_F_4"},{"lng":24.14863,"geohash":"u81hmsbrzg","stationName":"Calea Cisnadiei","lat":45.77451,"stationId":"SB_B_14_F_5"},{"lng":24.15349,"geohash":"u81hmth135","stationName":"Interex","lat":45.77477,"stationId":"SB_B_14_F_6"},{"lng":24.15725,"geohash":"u81hmtqy88","stationName":"Piata Rahova 1","lat":45.77703,"stationId":"SB_B_14_F_7"},{"lng":24.16485,"geohash":"u81hmyhq9b","stationName":"Vasile Milea 1","lat":45.78115,"stationId":"SB_B_14_F_8"},{"lng":24.17042,"geohash":"u81hqn8mgt","stationName":"Cofetaria Narcisa","lat":45.78379,"stationId":"SB_B_14_F_9"},{"lng":24.17568,"geohash":"u81hqphpyj","stationName":"Sanitas Vasile Aaron","lat":45.78688,"stationId":"SB_B_14_F_10"},{"lng":24.18235,"geohash":"u81hw21498","stationName":"Comtram 2","lat":45.79145,"stationId":"SB_B_14_F_11"},{"lng":24.18409,"geohash":"u81hw2f26h","stationName":"Sembraz","lat":45.7952,"stationId":"SB_B_14_F_12"},{"lng":24.17759,"geohash":"u81hw1j8ds","stationName":"Compa II\/2","lat":45.79662,"stationId":"SB_B_14_F_13"},{"lng":24.17279,"geohash":"u81hw1d44f","stationName":"Complex Otetarilor","lat":45.79961,"stationId":"SB_B_14_F_14"},{"lng":24.16972,"geohash":"u81htczf72","stationName":"Libra 1","lat":45.80102,"stationId":"SB_B_14_F_15"}],"routeWayPoints":[],"routeWayPointsEncoded":"oajvGq{frC_A_@zAmJ\\{BFm@A_AKq@Qk@u@_BKc@Gk@Am@Be@Hg@Ne@r@eAbBwAhBwAb@U|AWRI`@Wn@s@z@oAwIeKqRaT_KwK}AwAcBkAqTmNxJ{^Fa@BoA[qQIsHO{AYsAe@mAo@kAy@y@iA{@c@u@cCwEYm@WaA_AkBDO@QMe@SIQDu@q@oCkDqEgGaAsAcAaBg@kAQi@c@wBW{BI}AWuCY_B_@mAcAiC[iB_Ywo@_@o@{AkB_BiBa@W]OyAUg@AEGKEM?y@aAoFwM_FeMqB{EmBkFcA}B_@e@cAaAcBy@gDkAgA{@EIKCI@GFEL@PQzAaBnLgD~WmAxI{Dj@aD\\U?sDvVGTy@`B[jCaAdEc@~@sBvC","routeName":"B_14_F"},"name":"Valea Aurie - Hotel Libra","lineNumber":"14","routeBackward":{"duration":"00:21","name":"Hotel Libra - Valea Aurie","moveDirection":"B","stations":[{"lng":24.16972,"geohash":"u81htczf72","stationName":"Libra 1","lat":45.80102,"stationId":"SB_B_14_B_0"},{"lng":24.16816,"geohash":"u81htcwsnc","stationName":"Strungului","lat":45.79995,"stationId":"SB_B_14_B_1"},{"lng":24.17355,"geohash":"u81hw14tst","stationName":"Compa I","lat":45.79748,"stationId":"SB_B_14_B_2"},{"lng":24.17701,"geohash":"u81hw1j0v0","stationName":"Compa II\/ 1","lat":45.79664,"stationId":"SB_B_14_B_3"},{"lng":24.184,"geohash":"u81hw2drbn","stationName":"Sembraz","lat":45.79513,"stationId":"SB_B_14_B_4"},{"lng":24.18244,"geohash":"u81hw2155t","stationName":"Comtram 1","lat":45.79156,"stationId":"SB_B_14_B_5"},{"lng":24.17443,"geohash":"u81hqp571n","stationName":"Piata Vasile Aaron","lat":45.78607,"stationId":"SB_B_14_B_6"},{"lng":24.1691,"geohash":"u81hmyx6ub","stationName":"Liceul Energetic","lat":45.78325,"stationId":"SB_B_14_B_7"},{"lng":24.16572,"geohash":"u81hmykcnn","stationName":"Vasile Milea 2","lat":45.78161,"stationId":"SB_B_14_B_8"},{"lng":24.15909,"geohash":"u81hmv8ngt","stationName":"Piata Rahova 2","lat":45.77847,"stationId":"SB_B_14_B_9"},{"lng":24.1496,"geohash":"u81hmt9hy2","stationName":"Nicolae Iorga","lat":45.7781,"stationId":"SB_B_14_B_10"},{"lng":24.14751,"geohash":"u81hmkxstc","stationName":"Ciresica 2","lat":45.77257,"stationId":"SB_B_14_B_11"},{"lng":24.14041,"geohash":"u81hmkd90m","stationName":"Siretului 2","lat":45.77199,"stationId":"SB_B_14_B_12"},{"lng":24.13851,"geohash":"u81hmk35hj","stationName":"Cimitir 2","lat":45.77096,"stationId":"SB_B_14_B_13"},{"lng":24.13299,"geohash":"u81hm5mne7","stationName":"Cimitirul Eroilor 2","lat":45.76606,"stationId":"SB_B_14_B_14"},{"lng":24.12493,"geohash":"u81hkgz4xd","stationName":"Valea Aurie","lat":45.76811,"stationId":"SB_B_14_B_15"}],"routeWayPoints":[],"routeWayPointsEncoded":"iopvGksorCg@p@QNECK?IHARj@bAvBtGh@i@nDqExA_CTm@ZqApAcJlAj@tAqIzE{[~A{LtBwPbBsLj@eAtAHhEzAr@^n@f@`AhAd@dAnDdJzFrN|A`E~@xB[uAZtAbCfGb@pCLLLDNCNOBKz@i@l@F^Jz@j@|BnC~@lA`BpDlV`k@ZhBtApDZtAThBVxDVzBTlA^rAf@jAbA`BzHlKfBxBd@fACb@DNWp@gGdOQTOBMJIRAd@DRHLTHTGtAbC~AxD\\rAVbBHp@FlA@jAa@dNtF^hIb@~@?nBI|F_@nB`@DvI^z@~BnNz@|FFl@?^s@bDuAbGOXp^x`@vIdK{@nAo@r@a@V[JuATv@zBDfAGl@_BfECV@\\RdA?j@DbA?`@WxBmCbPeBs@","routeName":"B_14_B"}},{"deviceType":"B","onlyOneRoute":false,"color":"8f4099","routeForward":{"duration":"00:26","name":"Valea Aurie - Gara","moveDirection":"F","stations":[{"lng":24.12493,"geohash":"u81hkgz4xd","stationName":"Valea Aurie","lat":45.76811,"stationId":"SB_B_15_F_0"},{"lng":24.13298,"geohash":"u81hm5mhg0","stationName":"Cimitirul Eroilor 1","lat":45.76574,"stationId":"SB_B_15_F_1"},{"lng":24.13837,"geohash":"u81hmk1p8z","stationName":"Cimitir 1","lat":45.77037,"stationId":"SB_B_15_F_2"},{"lng":24.14061,"geohash":"u81hmkdwkz","stationName":"Tursib 1","lat":45.7729,"stationId":"SB_B_15_F_3"},{"lng":24.14432,"geohash":"u81hmmm2gm","stationName":"Dima 2","lat":45.77607,"stationId":"SB_B_15_F_4"},{"lng":24.14863,"geohash":"u81hmsbrzg","stationName":"Calea Cisnadiei","lat":45.77451,"stationId":"SB_B_15_F_5"},{"lng":24.15349,"geohash":"u81hmth135","stationName":"Interex","lat":45.77477,"stationId":"SB_B_15_F_6"},{"lng":24.15725,"geohash":"u81hmtqy88","stationName":"Piata Rahova 1","lat":45.77703,"stationId":"SB_B_15_F_7"},{"lng":24.16485,"geohash":"u81hmyhq9b","stationName":"Vasile Milea 1","lat":45.78115,"stationId":"SB_B_15_F_8"},{"lng":24.16988,"geohash":"u81hmvxzzj","stationName":"Mobexpert","lat":45.77864,"stationId":"SB_B_15_F_9"},{"lng":24.17131,"geohash":"u81hqj3pb3","stationName":"Shopping City","lat":45.77725,"stationId":"SB_B_15_F_10"},{"lng":24.17021,"geohash":"u81hqjb5qw","stationName":"XXL","lat":45.77925,"stationId":"SB_B_15_F_11"},{"lng":24.17042,"geohash":"u81hqn8mgt","stationName":"Cofetaria Narcisa","lat":45.78379,"stationId":"SB_B_15_F_12"},{"lng":24.17568,"geohash":"u81hqphpyj","stationName":"Sanitas Vasile Aaron","lat":45.78688,"stationId":"SB_B_15_F_13"},{"lng":24.1753,"geohash":"u81hqpeft2","stationName":"Comsilcost","lat":45.7887,"stationId":"SB_B_15_F_14"},{"lng":24.17009,"geohash":"u81hqpb05v","stationName":"Ceferistilor 2","lat":45.78967,"stationId":"SB_B_15_F_15"},{"lng":24.16515,"geohash":"u81hmzud0f","stationName":"Trei Stejari 2","lat":45.79,"stationId":"SB_B_15_F_16"},{"lng":24.15997,"geohash":"u81htbbb81","stationName":"Motto Vello","lat":45.79523,"stationId":"SB_B_15_F_17"},{"lng":24.16064,"geohash":"u81htc14ze","stationName":"Simerom","lat":45.797,"stationId":"SB_B_15_F_18"},{"lng":24.16146,"geohash":"u81htc9ffy","stationName":"Gara","lat":45.79976,"stationId":"SB_B_15_F_19"}],"routeWayPoints":[],"routeWayPointsEncoded":"oajvGq{frC_A_@zAmJ\\{BFm@A_AKq@Qk@u@_BKc@Gk@Am@Be@Hg@Ne@r@eAbBwAbAy@hAs@|AWh@WTQd@k@z@oAqFqGsKyLeI}ISkAc@i@u@@oGaH}AwAcBkAqTmNxJ{^Fa@Bo@e@e\\O{AYsAe@mAo@kAy@y@iA{@c@u@}CeGWaA_AkBBG@e@GSSMIAKDu@q@_BqBcIuKcAaBg@kA_@sAUmAW{BWyDUiB[uAi@wA_@wBJsAF[h@aAjCeEtDmE`@a@lC_BZ[NHd@x@vAgBfBeC`BaB@DHFHBJAFGDQA[|AgA`@QPUDS@u@FO@YMe@a@EOJIZ]t@kFhFiGvF]b@_D`DoCfDyAzBmCvEIg@wT}g@gCyF_@o@eC}Cu@w@a@W]OyAUg@AEGKEM?MFINm@tGQbA_B`E_@vAkBft@sApBa@`@aIlJ}EtGq@f@s@Tq@LeAL{@Bm@TwAt@{Ad@iAXgB{Ba@m@q@{A{@cBA_@Ig@cCaFg@WUC]R}EnG","routeName":"B_15_F"},"name":"Valea Aurie - Gara","lineNumber":"15","routeBackward":{"duration":"00:27","name":"Gara - Valea Aurie","moveDirection":"B","stations":[{"lng":24.16146,"geohash":"u81htc9ffy","stationName":"Gara","lat":45.79976,"stationId":"SB_B_15_B_0"},{"lng":24.1583,"geohash":"u81ht9ps3h","stationName":"Constitutiei","lat":45.79726,"stationId":"SB_B_15_B_1"},{"lng":24.16004,"geohash":"u81htb8u1d","stationName":"Policlinica Stomatologica","lat":45.79446,"stationId":"SB_B_15_B_2"},{"lng":24.16526,"geohash":"u81hmzu9e2","stationName":"Trei Stejari 1","lat":45.7899,"stationId":"SB_B_15_B_3"},{"lng":24.17025,"geohash":"u81hqp8pxw","stationName":"Ceferistilor 1","lat":45.78959,"stationId":"SB_B_15_B_4"},{"lng":24.17512,"geohash":"u81hqpec9n","stationName":"Viaduct Vasile Aaron","lat":45.78856,"stationId":"SB_B_15_B_5"},{"lng":24.17443,"geohash":"u81hqp571n","stationName":"Piata Vasile Aaron","lat":45.78607,"stationId":"SB_B_15_B_6"},{"lng":24.1691,"geohash":"u81hmyx6ub","stationName":"Liceul Energetic","lat":45.78325,"stationId":"SB_B_15_B_7"},{"lng":24.16988,"geohash":"u81hmvxzzj","stationName":"Mobexpert","lat":45.77864,"stationId":"SB_B_15_B_8"},{"lng":24.17131,"geohash":"u81hqj3pb3","stationName":"Shopping City","lat":45.77725,"stationId":"SB_B_15_B_9"},{"lng":24.17021,"geohash":"u81hqjb5qw","stationName":"XXL","lat":45.77925,"stationId":"SB_B_15_B_10"},{"lng":24.16572,"geohash":"u81hmykcnn","stationName":"Vasile Milea 2","lat":45.78161,"stationId":"SB_B_15_B_11"},{"lng":24.15909,"geohash":"u81hmv8ngt","stationName":"Piata Rahova 2","lat":45.77847,"stationId":"SB_B_15_B_12"},{"lng":24.15323,"geohash":"u81hmw5c5p","stationName":"Cofetaria Primavara","lat":45.78024,"stationId":"SB_B_15_B_13"},{"lng":24.14728,"geohash":"u81hmqrs2m","stationName":"Piata Aurel Vlaicu 2","lat":45.78216,"stationId":"SB_B_15_B_14"},{"lng":24.1447,"geohash":"u81hmmv8h6","stationName":"Mihail Sebastian","lat":45.77867,"stationId":"SB_B_15_B_15"},{"lng":24.14151,"geohash":"u81hmkgr9g","stationName":"Tursib 2","lat":45.77447,"stationId":"SB_B_15_B_16"},{"lng":24.13851,"geohash":"u81hmk35hj","stationName":"Cimitir 2","lat":45.77096,"stationId":"SB_B_15_B_17"},{"lng":24.13299,"geohash":"u81hm5mne7","stationName":"Cimitirul Eroilor 2","lat":45.76606,"stationId":"SB_B_15_B_18"},{"lng":24.12493,"geohash":"u81hkgz4xd","stationName":"Valea Aurie","lat":45.76811,"stationId":"SB_B_15_B_19"}],"routeWayPoints":[],"routeWayPointsEncoded":"mgpvGa`nrC@BQVG`@j@hDH|Al@zDbA~HXGlAm@pFcDn@Ur@Ov@Ox@IRONc@t@aAb@e@t@i@jAo@hBq@rAO|@Sl@[p@o@hE_G`ImJx@_Av@[nB_v@^wAvBmFj@mDXs@NCNOBKz@i@l@F^Jz@j@|BnC~@lAjGnNbQba@Hf@zCmFtAoBvBiCtA{AlC_BZ[NHd@x@`DcE\\i@`BaBDHHDJ@HGDIBSAQ|AgAj@YJW?{@FIDUAWK[YEOBMTQj@OV_E~DoDfDaBtAg@f@_AfAyBxBoCfDyAzBmCvEFb@vAzD\\pAVbBXnELnAXdBZtAXv@r@vAdBbCvEnGnCjDd@fACb@DNeDjIyBjFQTOBMJIRAd@DR{Qpd@a@t@M@SPG`@H^FLJDVCbHdFxBxA`XdRpTlNbBjA|AvA~JvKpR`TvIdK{@nAo@r@a@VSH}AVv@~BDbAGl@_BfECV@\\RdA?v@F`AAb@GTOvAmCbPeBq@","routeName":"B_15_B"}},{"deviceType":"B","onlyOneRoute":false,"color":"8f4099","routeForward":{"duration":"00:17","name":"Valea Aurie - Terezian","moveDirection":"F","stations":[{"lng":24.12493,"geohash":"u81hkgz4xd","stationName":"Valea Aurie","lat":45.76811,"stationId":"SB_B_16_F_0"},{"lng":24.13298,"geohash":"u81hm5mhg0","stationName":"Cimitirul Eroilor 1","lat":45.76574,"stationId":"SB_B_16_F_1"},{"lng":24.13837,"geohash":"u81hmk1p8z","stationName":"Cimitir 1","lat":45.77037,"stationId":"SB_B_16_F_2"},{"lng":24.14061,"geohash":"u81hmkdwkz","stationName":"Tursib 1","lat":45.7729,"stationId":"SB_B_16_F_3"},{"lng":24.14128,"geohash":"u81hmm74ut","stationName":"Scoala Generala Nr.16\/2","lat":45.77641,"stationId":"SB_B_16_F_4"},{"lng":24.13612,"geohash":"u81hmjz7hm","stationName":"Scoala Militara 1","lat":45.7792,"stationId":"SB_B_16_F_5"},{"lng":24.13311,"geohash":"u81hmnv1yp","stationName":"Hategului","lat":45.78449,"stationId":"SB_B_16_F_6"},{"lng":24.13306,"geohash":"u81hmpt4t0","stationName":"Biserica Strand","lat":45.7887,"stationId":"SB_B_16_F_7"},{"lng":24.13318,"geohash":"u81ht0t0xu","stationName":"Polsib 3","lat":45.79387,"stationId":"SB_B_16_F_8"},{"lng":24.13592,"geohash":"u81ht0z4xd","stationName":"Mondex","lat":45.79558,"stationId":"SB_B_16_F_9"},{"lng":24.14113,"geohash":"u81ht3503p","stationName":"Scandia","lat":45.79659,"stationId":"SB_B_16_F_10"},{"lng":24.14467,"geohash":"u81ht3tt78","stationName":"Piata Cibin 1","lat":45.80016,"stationId":"SB_B_16_F_11"},{"lng":24.14927,"geohash":"u81htd2fyu","stationName":"Indes","lat":45.80387,"stationId":"SB_B_16_F_12"},{"lng":24.15193,"geohash":"u81htddykg","stationName":"Rusciorului 2","lat":45.80584,"stationId":"SB_B_16_F_13"},{"lng":24.14972,"geohash":"u81hte1r1q","stationName":"Gaz Metan","lat":45.80873,"stationId":"SB_B_16_F_14"},{"lng":24.14636,"geohash":"u81ht7nydz","stationName":"Terezian","lat":45.80865,"stationId":"SB_B_16_F_15"}],"routeWayPoints":[],"routeWayPointsEncoded":"uajvGo{frC?Cy@]zAmJ\\{BFm@A_AKq@Qk@u@_BKc@Gk@Am@Be@Hg@Ne@r@eAlEoDb@U|AWRI`@Wn@s@z@oAwIeKqRaTYsAGIa@[k@BoGaH}AwAcBkAePeKyElQINiAt@a@\\Yb@Sh@mDdQ[BUAwFwCmCrMy@H]Py@j@m@Tu@DmBe@aBi@WCSHYXmAfBuGnF{@b@c@Ag@SmEaC]Mm@GoDGoAHiARoAh@q@d@eA|@uCrC_Av@s@Zq@JUG]Sw@w@_C}Ci@eAASEMIGKAOJO?UEsDcCa@[y@cA}BiFOc@}BuQq@kG_@aESaBOm@e@uAyAqBgCiCiC_CuMmIcAw@mFoF]o@aEuIa@mAy@}CaAgGIq@?a@EQJI@UEGECIBABMGuAE]B[EqAFMDwCHuAHoA`@e@Ti@`@c@b@]f@_@p@_@hAu@vDm@~B{ApHKFGLA\\BHHHHBNCHOrC|A","routeName":"B_16_F"},"name":"Valea Aurie - Terezian","lineNumber":"16","routeBackward":{"duration":"00:20","name":"Terezian - Valea Aurie","moveDirection":"B","stations":[{"lng":24.14636,"geohash":"u81ht7nydz","stationName":"Terezian","lat":45.80865,"stationId":"SB_B_16_B_0"},{"lng":24.14873,"geohash":"u81htd8s4n","stationName":"Gladiolelor","lat":45.80547,"stationId":"SB_B_16_B_1"},{"lng":24.14656,"geohash":"u81ht6nyxx","stationName":"Flaro","lat":45.80316,"stationId":"SB_B_16_B_2"},{"lng":24.14343,"geohash":"u81ht3sdnx","stationName":"Piata Cibin 2","lat":45.79964,"stationId":"SB_B_16_B_3"},{"lng":24.13804,"geohash":"u81ht30b3j","stationName":"Tehnica Noua","lat":45.79658,"stationId":"SB_B_16_B_4"},{"lng":24.13458,"geohash":"u81ht0yr02","stationName":"Algenia","lat":45.79634,"stationId":"SB_B_16_B_5"},{"lng":24.13132,"geohash":"u81ht0gys9","stationName":"Autogara 2","lat":45.79626,"stationId":"SB_B_16_B_6"},{"lng":24.13295,"geohash":"u81hmpt167","stationName":"Maramuresului","lat":45.7885,"stationId":"SB_B_16_B_7"},{"lng":24.13293,"geohash":"u81hmnv445","stationName":"Barsei","lat":45.78451,"stationId":"SB_B_16_B_8"},{"lng":24.13613,"geohash":"u81hmjzkst","stationName":"Bulevardul Victoriei","lat":45.77946,"stationId":"SB_B_16_B_9"},{"lng":24.14091,"geohash":"u81hmm6g7f","stationName":"Scoala Generala Nr.16\/1","lat":45.77648,"stationId":"SB_B_16_B_10"},{"lng":24.14151,"geohash":"u81hmkgr9g","stationName":"Tursib 2","lat":45.77447,"stationId":"SB_B_16_B_11"},{"lng":24.13851,"geohash":"u81hmk35hj","stationName":"Cimitir 2","lat":45.77096,"stationId":"SB_B_16_B_12"},{"lng":24.13299,"geohash":"u81hm5mne7","stationName":"Cimitirul Eroilor 2","lat":45.76606,"stationId":"SB_B_16_B_13"},{"lng":24.12493,"geohash":"u81hkgz4xd","stationName":"Valea Aurie","lat":45.76811,"stationId":"SB_B_16_B_14"}],"routeWayPoints":[],"routeWayPointsEncoded":"{~qvGcbkrCBGfDhBbBgDlC}Ef@e@xHcGVKnIdSb@f@zHfGtApAn@f@`K~FrDrD|AhBXp@Nn@TbBz@fKn@xF~@nHb@zCiCnBc@d@qChEmDdHfDZbGXdAHzKj@p@d@FNJFL?JGHM@UCy@@_@XmCLg@HCt@h@~B|Cv@v@\\RTFp@Kr@[~@w@tCsCbBsA~@e@lAa@zAMn@AzBBn@Fd@J~C~Az@f@f@Rb@@z@c@tGoFxAwB`@SN@jA^jCp@t@El@Ux@k@\\Qz@GjCuMxFxC`@t@dEuSTg@Z]vA_AHM~EuQtMlIrDbC|AvAlSxTtJtKdInJ{@nAe@j@UPi@V}AVr@pBFl@?z@Oh@wA|DAZFj@Nr@A|@DX?z@GTOvAmCbPgBs@","routeName":"B_16_B"}},{"deviceType":"B","onlyOneRoute":false,"color":"8f4099","routeForward":{"duration":"00:15","name":"Strand - Gara","moveDirection":"F","stations":[{"lng":24.13415,"geohash":"u81hmpvyqq","stationName":"Strand","lat":45.79075,"stationId":"SB_B_17_F_0"},{"lng":24.13295,"geohash":"u81hmpt167","stationName":"Maramuresului","lat":45.7885,"stationId":"SB_B_17_F_1"},{"lng":24.13293,"geohash":"u81hmnv445","stationName":"Barsei","lat":45.78451,"stationId":"SB_B_17_F_2"},{"lng":24.13759,"geohash":"u81hmr0mww","stationName":"Moldovitei 1","lat":45.7865,"stationId":"SB_B_17_F_3"},{"lng":24.14663,"geohash":"u81ht2p43r","stationName":"Casa Armatei","lat":45.79144,"stationId":"SB_B_17_F_4"},{"lng":24.14993,"geohash":"u81ht817yj","stationName":"Teatru","lat":45.79169,"stationId":"SB_B_17_F_5"},{"lng":24.15652,"geohash":"u81ht8y0p8","stationName":"Spitalul Judetean","lat":45.79514,"stationId":"SB_B_17_F_6"},{"lng":24.16064,"geohash":"u81htc14ze","stationName":"Simerom","lat":45.797,"stationId":"SB_B_17_F_7"},{"lng":24.16146,"geohash":"u81htc9ffy","stationName":"Gara","lat":45.79976,"stationId":"SB_B_17_F_8"}],"routeWayPoints":[],"routeWayPointsEncoded":"aonvGouhrCv@tGh@zARt@`ByAp@e@nAi@hASnAInDFl@Fb@P~EjC^HRAz@c@nFqEd@]NQbA_B^UyCyE{@yBiAmD_@aA]c@c@Yq@IyBMgGOm@Qw@m@y@w@}BcBaDsAkB_BYE|@qCPU^WhGeIVi@uEqHyB{C{EwFg@u@{@gBWgAEg@B[L_@dAsAt@m@J?RMF[C]IKIES@o@aAWYoDyH_J_UiD{Gy@}BmBcHg@}BM{@Gy@?]I]MU_@_@sAcBa@m@q@{A{@cBA_@Ig@cCaFg@WUC]R_FpG","routeName":"B_17_F"},"name":"Strand - Gara","lineNumber":"17","routeBackward":{"duration":"00:17","name":"Gara - Strand","moveDirection":"B","stations":[{"lng":24.16146,"geohash":"u81htc9ffy","stationName":"Gara","lat":45.79976,"stationId":"SB_B_17_B_0"},{"lng":24.15815,"geohash":"u81ht8zmms","stationName":"Parcul Tineretului","lat":45.79606,"stationId":"SB_B_17_B_1"},{"lng":24.15456,"geohash":"u81ht8sg4n","stationName":"Muzeul de Stiinte Naturale","lat":45.79431,"stationId":"SB_B_17_B_2"},{"lng":24.15093,"geohash":"u81ht860m7","stationName":"Nufarul","lat":45.79245,"stationId":"SB_B_17_B_3"},{"lng":24.14718,"geohash":"u81ht2pmy5","stationName":"A. Saguna","lat":45.79202,"stationId":"SB_B_17_B_4"},{"lng":24.13752,"geohash":"u81hmr0mku","stationName":"Moldovitei 2","lat":45.78645,"stationId":"SB_B_17_B_5"},{"lng":24.13311,"geohash":"u81hmnv1yp","stationName":"Hategului","lat":45.78449,"stationId":"SB_B_17_B_6"},{"lng":24.13306,"geohash":"u81hmpt4t0","stationName":"Biserica Strand","lat":45.7887,"stationId":"SB_B_17_B_7"},{"lng":24.13415,"geohash":"u81hmpvyqq","stationName":"Strand","lat":45.79075,"stationId":"SB_B_17_B_8"}],"routeWayPoints":[],"routeWayPointsEncoded":"ggpvGa`nrCUZG`@j@hDH|Al@zDbA~HXGlAm@nEmC`Ae@xCm@zAbC`@z@dAdDh@pBx@|BhDzG~I~TnDxHFd@l@rA?XiAhAm@pAc@jAkGvMm@bBDTbE~D`@t@h@`BLRxFdDn@h@lAnBl@rAQT}@pCXDjB~A`DrA|BbBpBdBl@PzGPdBJp@Hb@X\\b@dDhJxBrD^d@YNyAvBuGnF{@b@c@Ag@S{@g@_D_Be@Ko@G{BCo@@{ALi@LCmLyBAUBuEtAP|A","routeName":"B_17_B"}},{"deviceType":"B","onlyOneRoute":false,"color":"8f4099","routeForward":{"duration":"00:19","name":"Gara - Tiglari - Cartierul Tineretului","moveDirection":"F","stations":[{"lng":24.16146,"geohash":"u81htc9ffy","stationName":"Gara","lat":45.79976,"stationId":"SB_B_18_F_0"},{"lng":24.15809,"geohash":"u81ht9rru7","stationName":"BRD","lat":45.79923,"stationId":"SB_B_18_F_1"},{"lng":24.15668,"geohash":"u81htdn656","stationName":"Abatorului","lat":45.80236,"stationId":"SB_B_18_F_2"},{"lng":24.15193,"geohash":"u81htddykg","stationName":"Rusciorului 2","lat":45.80584,"stationId":"SB_B_18_F_3"},{"lng":24.14972,"geohash":"u81hte1r1q","stationName":"Gaz Metan","lat":45.80873,"stationId":"SB_B_18_F_4"},{"lng":24.14636,"geohash":"u81ht7nydz","stationName":"Terezian","lat":45.80865,"stationId":"SB_B_18_F_5"},{"lng":24.14343,"geohash":"u81ht3sdnx","stationName":"Piata Cibin 2","lat":45.79964,"stationId":"SB_B_18_F_6"},{"lng":24.13525,"geohash":"u81ht1yc8h","stationName":"Kiev","lat":45.80091,"stationId":"SB_B_18_F_7"},{"lng":24.13393,"geohash":"u81ht4mz16","stationName":"Paris 2","lat":45.80459,"stationId":"SB_B_18_F_8"},{"lng":24.13689,"geohash":"u81ht4zcw3","stationName":"Campului 2","lat":45.80639,"stationId":"SB_B_18_F_9"},{"lng":24.14051,"geohash":"u81ht76s6s","stationName":"Alimentara Tiglari 2","lat":45.80962,"stationId":"SB_B_18_F_10"},{"lng":24.13833,"geohash":"u81ht78fxg","stationName":"Bariera Tiglari 2","lat":45.81069,"stationId":"SB_B_18_F_11"},{"lng":24.13683,"geohash":"u81hthpbub","stationName":"Piata Tiglari 2","lat":45.81312,"stationId":"SB_B_18_F_12"},{"lng":24.13404,"geohash":"u81hthmy7f","stationName":"Klagenfurt","lat":45.81545,"stationId":"SB_B_18_F_13"},{"lng":24.12989,"geohash":"u81hth6c5h","stationName":"Lisabona","lat":45.81456,"stationId":"SB_B_18_F_14"}],"routeWayPoints":[],"routeWayPointsEncoded":"igpvGc`nrCS\\G`@j@hDH|Al@zD~@bHuEn@aE|@OAa@MGKKGM?MHGTQ@uFhBu@j@g@n@M\\e@bFAdAFhLCXGPWTI@gCSIBABMGuAE]B[EgABWHkDJaAFi@NkAf@mAdA}@xA_@hAu@vDq@hCwAfHKFGLA\\BHHHHBNCHO`LfGjEzBrCnAhAZnCVxC`@jCf@dD~@VDnAFZHTNFLNBHGDOB_@NY~A}@`K~Fj@h@hEpEiAbCeAnCkGtLM^IAIHAPBLFFSt@gA`C{GzLc@nAOJCj@oAlCu@hBsIoD_Ac@aImOsMuWaCiEKM}BrDwBzFkBxFwClKu@bCwFcEZmAeFaECZyI~ZDR~FdPVd@","routeName":"B_18_F"},"name":"Gara - Tiglari - Cartierul Tineretului","lineNumber":"18","routeBackward":{"duration":"00:18","name":"Cartierul Tineretului - Tiglari - Gara","moveDirection":"B","stations":[{"lng":24.12989,"geohash":"u81hth6c5h","stationName":"Lisabona","lat":45.81456,"stationId":"SB_B_18_B_0"},{"lng":24.13426,"geohash":"u81hthqj90","stationName":"Landshut","lat":45.81531,"stationId":"SB_B_18_B_1"},{"lng":24.1365,"geohash":"u81hthp8vn","stationName":"Piata Tiglari 1","lat":45.81315,"stationId":"SB_B_18_B_2"},{"lng":24.1376,"geohash":"u81ht787wg","stationName":"Bariera Tiglari 1","lat":45.81086,"stationId":"SB_B_18_B_3"},{"lng":24.14058,"geohash":"u81ht76es7","stationName":"Alimentara Tiglari 1","lat":45.80949,"stationId":"SB_B_18_B_4"},{"lng":24.13673,"geohash":"u81ht4zc6s","stationName":"Campului 1","lat":45.80636,"stationId":"SB_B_18_B_5"},{"lng":24.13332,"geohash":"u81ht4mm7h","stationName":"Paris 1","lat":45.8043,"stationId":"SB_B_18_B_6"},{"lng":24.13555,"geohash":"u81ht1wzzh","stationName":"Kogalniceanu","lat":45.80061,"stationId":"SB_B_18_B_7"},{"lng":24.14339,"geohash":"u81ht3udjc","stationName":"Premium 1","lat":45.80098,"stationId":"SB_B_18_B_8"},{"lng":24.14586,"geohash":"u81ht6yrrq","stationName":"Strada Lunga","lat":45.8074,"stationId":"SB_B_18_B_9"},{"lng":24.14981,"geohash":"u81hte1q76","stationName":"Rusciorului 1","lat":45.80858,"stationId":"SB_B_18_B_10"},{"lng":24.15149,"geohash":"u81htd4xdx","stationName":"Libertatea","lat":45.80333,"stationId":"SB_B_18_B_11"},{"lng":24.15575,"geohash":"u81ht9vxvf","stationName":"Apollo","lat":45.80197,"stationId":"SB_B_18_B_12"},{"lng":24.1583,"geohash":"u81ht9ps3h","stationName":"Constitutiei","lat":45.79726,"stationId":"SB_B_18_B_13"},{"lng":24.16064,"geohash":"u81htc14ze","stationName":"Simerom","lat":45.797,"stationId":"SB_B_18_B_14"},{"lng":24.16146,"geohash":"u81htc9ffy","stationName":"Gara","lat":45.79976,"stationId":"SB_B_18_B_15"}],"routeWayPoints":[],"routeWayPointsEncoded":"qcsvGa{grCC@cGcPMk@xI_[B[~CdCh@hCvFbEnD_Mf@qB`CaHvAsDnAwBl@{@lCvErMtW`IlOrKrEdCwFHHHAJS?a@GIC?DS\\{@fBeDpAyBbAkBxAwCVs@F[JAFI@MCMGGGAwAqFa@iDa@qLJmBFc@eDqBGIGk@KIK@g@NqBI{A_@gBi@kDm@sC]cBOiA[gDwAsPaJe@Y@[EOEEzAqHl@gEb@uBVw@d@_A^k@lAeAjAg@h@O`AGjDKp@H`Al@J?\\_@PEz@DZLh@OtALbDb@lCf@HMA]McAAg@FkC?yAI{F@Wr@oD^gAf@aAn@gBDDNBHCP@v@OzEsAtD]XGlAm@dC}AhAo@`Ae@xCm@N?TINSHW@YC]KWSSiCiDmB_EA_@Ig@cCaFg@WUC]R}EpG","routeName":"B_18_B"}},{"deviceType":"B","onlyOneRoute":false,"color":"8f4099","routeForward":{"duration":"01:20","name":"Sibiu - Paltinis","moveDirection":"F","stations":[{"lng":24.16146,"geohash":"u81htc9ffy","stationName":"Gara","lat":45.79976,"stationId":"SB_B_22_F_0"},{"lng":24.15093,"geohash":"u81ht860m7","stationName":"Nufarul","lat":45.79245,"stationId":"SB_B_22_F_1"},{"lng":24.14728,"geohash":"u81hmqrs2m","stationName":"Piata Aurel Vlaicu 2","lat":45.78216,"stationId":"SB_B_22_F_2"},{"lng":24.14151,"geohash":"u81hmkgr9g","stationName":"Tursib 2","lat":45.77447,"stationId":"SB_B_22_F_3"},{"lng":24.12627,"geohash":"u81hm42jqg","stationName":"Dumbrava 2","lat":45.76035,"stationId":"SB_B_22_F_4"},{"lng":24.0624,"geohash":"u81h5919q9","stationName":"Rasinari","lat":45.70884,"stationId":"SB_B_22_F_5"},{"lng":24.01371,"geohash":"u81h43whpz","stationName":"Curmatura 2","lat":45.71209,"stationId":"SB_B_22_F_6"},{"lng":23.98583,"geohash":"u815cv3gy3","stationName":"Arka Park 2","lat":45.68867,"stationId":"SB_B_22_F_7"},{"lng":23.93978,"geohash":"u815bg8kjr","stationName":"Valari 2","lat":45.67913,"stationId":"SB_B_22_F_8"},{"lng":23.93457,"geohash":"u815bduwez","stationName":"Arena Platos 2","lat":45.67544,"stationId":"SB_B_22_F_9"},{"lng":23.93794,"geohash":"u815b9r163","stationName":"Paltinis","lat":45.66627,"stationId":"SB_B_22_F_10"}],"routeWayPoints":[],"routeWayPointsEncoded":"egpvGa`nrCAAU\\G`@j@hDH|Al@zDbA~HXGlAm@xCkBvBgAxCm@zAbC`@z@dAdDh@pBx@|BhDzG~I~TnDxHFd@l@rAARHVFHJBJAHGFIBURUlEkEr@i@PHfB[bA?`AHdDz@zGlBnIxBrCn@vBt@BFJHH@PCtB~Aha@dYpTlNbBjA|AvA~JvKpR`TtEpF`CrC`GpHdTnX|AnCh@jAzAzF`AjErDhOVt@Tf@~BxC~LjOt@p@rb@`YfFfD`B`Ap@ZjV|G|Av@zAjAjQvT|InLv@zB~AvNRbAXz@Xp@dC~D`CjEzL~RfEhHpD~F|AxCdBdC|ExEfD|CfEnExCtCx@\\fAFzCM`AFTFt@\\rAlAzHnIf\\r]xU`WdAz@zA|AHLhAb@NN\\h@d@jAZl@n@p@j@rAhAhDLRlBvBx@rANZPTXH@z@Hd@dAtCV`Al@`A`AxB~@bAHRl@nDG\\KxAW~EKbAU~ACp@p@zFTv@Lz@@`@It@_@dBOb@Il@A^NfAl@lCZbBPtD@bFZhFVvAh@fBfEhQRpABbAEhA?~@Dl@hA~I\\bBx@|F`@`BrAbEl@hCvCrNr@`ENlADbBChAgCrY_@|FM~@{A~GqB|Hg@rA_@f@cCrC[j@aBzD]d@e@\\]n@{DrLk@|A]p@yB`DmCdEa@z@Y`AcArF}ArIWbBGjABhAJbAx@|FB|@AvAUtE_@tF@h@Jv@`@nB@ZKVGBGAKIm@uBi@}AOo@Cm@JgB?kCOsBQeAIGM?IHCNd@~D?RMZSEGICSQkEIw@OKG@KV@X^~C@hAGl@Wb@o@b@SRcAfCAp@DVLTr@j@d@h@HVFp@BhBMvA_AfEGj@@XDP\\Xb@FTJDP?PENUBkAg@[WKYGw@B_BG]KEKDGL?h@FxCH\\^d@ZNVTPVRp@j@tEBx@O`B@d@ZdCIz@SXcAx@sAlAGLB^JFJ@LIn@y@l@g@|A{@XYHq@CgAHk@d@w@d@i@b@Yb@Mx@Mp@DrC~@^A~@W`@IRAnBZh@NPPLVJ`AN~@HRNJtBh@vFrCn@VZB~AITHJPP~@D`CJb@NTVNlAVf@\\HTHf@P|AN`@\\^fAn@V?`AW^?bAZPA`Ai@XIXAjAVv@D`@Eh@Qr@_@PAJFFXIRe@NiBf@c@H}A?i@PqAdAk@XSVAPBPJHzADt@Hz@Pf@Bn@QbF_El@Ol@@z@JhAVZTPTb@nALRPLNBV?j@I`@BXJPPN\\J^@^E^Kf@MZaApB{@pACd@FJJBJALMh@sA~AwCr@_Bv@eDLW^YNEXA^HxBhA|CLtB?NEPOvBuCl@e@fB_AXGb@Bv@RVb@Ff@It@YpABt@hAlCRz@HrBFt@Hf@\\t@hApAf@v@\\vAvA~Db@tAJt@ChDN|@j@|A^vAt@hEfAnEp@lDNxAhB`]Jp@z@lCJt@B|HBT\\t@PNdAl@l@f@~ApC`Az@x@~@hAbCTVr@j@hAv@T\\N^ZvA`BdJJt@Dx@?hAGz@cBdGW~AAxAR~IE~AQpA_@rAmAhDIb@EbADp@Nz@fAvDHl@Dh@\\rIb@dD`@|AbElKhBdE\\tAFdAL`JBvDGpASnAwDbMEp@BbAJ~Ad@xDHnAW|C@`AP`A\\vA^`ApBdEnAxDf@rBTlADvACrBBnALr@tApDf@hBxDlPNd@PZ\\XZJn@Fb@@hBGb@?\\HZLb@X^b@b@t@^pAdAtFj@lBtAvD\\f@`B|AhJlMh@h@r@f@f@Lt@Jx@Ej@Q\\QxAoAr@i@f@KzBITIb@e@XcATqAb@_A`@Ol@@z@NVIXSr@qA^eAv@cDl@}AZs@r@s@pAu@\\Ml@OfDS~@?ZBf@N","routeName":"B_22_F"},"name":"Sibiu - Paltinis","lineNumber":"22","routeBackward":{"duration":"01:20","name":"Paltinis - Sibiu","moveDirection":"B","stations":[{"lng":23.93794,"geohash":"u815b9r163","stationName":"Paltinis","lat":45.66627,"stationId":"SB_B_22_B_0"},{"lng":23.93503,"geohash":"u815bduzws","stationName":"Arena Platos","lat":45.6756,"stationId":"SB_B_22_B_1"},{"lng":23.93985,"geohash":"u815bg8kyv","stationName":"Valari 1","lat":45.67925,"stationId":"SB_B_22_B_2"},{"lng":23.98611,"geohash":"u815cv65sg","stationName":"Arka Park 1","lat":45.68864,"stationId":"SB_B_22_B_3"},{"lng":24.01388,"geohash":"u81h43w7eu","stationName":"Curmatura 1","lat":45.71199,"stationId":"SB_B_22_B_4"},{"lng":24.06218,"geohash":"u81h59183r","stationName":"Rasinari","lat":45.7087,"stationId":"SB_B_22_B_5"},{"lng":24.12613,"geohash":"u81hm42h5s","stationName":"Dumbrava 1","lat":45.76014,"stationId":"SB_B_22_B_6"},{"lng":24.14061,"geohash":"u81hmkdwkz","stationName":"Tursib 1","lat":45.7729,"stationId":"SB_B_22_B_7"},{"lng":24.14829,"geohash":"u81hmw85pc","stationName":"Piata Aurel Vlaicu 1","lat":45.7833,"stationId":"SB_B_22_B_8"},{"lng":24.14993,"geohash":"u81ht817yj","stationName":"Teatru","lat":45.79169,"stationId":"SB_B_22_B_9"},{"lng":24.16146,"geohash":"u81htc9ffy","stationName":"Gara","lat":45.79976,"stationId":"SB_B_22_B_10"}],"routeWayPoints":[],"routeWayPointsEncoded":"_evuGokbqCiET_ATw@b@cAr@a@p@}@xBc@nBc@vAw@bBUX_@NY?gAO_@FQH]n@i@lC]n@QLUHmCJk@XwBhBs@Zq@Jy@AaAUaAs@w@_AeH{Jg@o@qBmBi@mAyAkE[uAc@cCa@mB_@}@g@s@}@m@k@Oq@@{@FcBGYG]Mc@o@e@aByDmPi@cBk@uAY_AIw@BqEMmAeAgE[cAkAqC{AaDu@yCIaABcAPwA?qAc@eDQoBGoA@s@P}@nC_Jd@iBLmA@gAS}OOaAe@}AsBuEkBuEmAoD[sAOuAc@{IQyBoAwEKw@?y@LcA~AsEXwAHiA?_CMcECaCDeAHk@`B}FPaAB{@GeByAuIc@{B[aAU]kBqAg@i@iAcCY_@gAaAm@s@w@{Ak@s@gAo@e@]]u@Cm@?eFG{AU}@m@iBScB{AgZKyAYgBiB}Hu@iEs@eCa@kAIaAFkBE_AMe@_BmEg@mBYy@aBoBWg@I[MoAE{AMu@W}@m@kAMa@E]Hw@XkA?q@Oe@MO[M_AIYFgB~@m@d@iCdDc@FuEIi@EYMcAm@i@Uk@?[LSPMVc@pBc@tAcCtEWr@_@l@K@KCGKBe@xAeCp@yAPgAA_@K_@O]QQYKa@Ck@HW?OCQMMSSs@a@q@[U_@KeAQ}@I[Da@Jg@\\{D`DYJUDQ?}@Mk@MyBIKICQ@QFOdAk@n@k@d@YVGRAhA@b@IfCq@NO@SGOKGQ@}Ap@}@BiASk@GYDmAn@Q@u@WYEuAXW?a@Se@[]_@Oa@[eCIUSQSKk@Ia@MWOUe@IqAAcAIi@Sg@UI_BH[Co@WmCuAcCiAgAUc@SISIe@Q{AMWQQSIsB]e@AsBd@_@G{Ak@{@Q[AYBcAVc@XSRq@~@IZE\\BfAC^EPKLcCzAs@z@_@ZKAKGC_@FMZ]zBiBRYDUBe@[eCAe@NaBCy@QaBYsBSq@QWs@e@_@e@I]GcEFMJEJDBHBn@AzAD^JXZVjAf@TCDa@EQUKc@GQKKMEQAYFk@j@eC\\sBBqAKoBIWMUy@k@_@i@EW?a@Pw@r@_BbAw@LOLi@D{@Ce@a@yDJWL?HHDTX`GPLH@L[?Se@_EBOHIL?HFRvAL`B@nBMzCHj@r@vBl@tBRJJGFS?KE]]aBKw@Ai@XgEZcG@wAC}@y@}FKcACiAFkAVcB`DgQXaA`@{@lCeExBaD\\q@j@}AjCkI~@eCbA_AzBgF\\k@fCqCh@gA`@wAhDmNTwAR_DzAwQx@qIFoA?cAYeDaBwIsCqMw@aCq@cCQ{@_AsGQq@oA_KA]FsCMqAUoAk@sBk@sCwCaLMy@YuECwFQuD}@iEUqAEy@DYn@kCLy@@i@QoAM_@Mo@c@{DEq@`@cDf@wIF]q@yDW]a@_@y@eBw@yASg@]kAo@_BMa@CoAQCMKWa@GSu@iAuB_CKWYeAuAkD{@aA]}@e@_AW]]Ss@WgAkA}AuAgFqFwCcDuBuBaGuGi_@w`@aEqEsAmA_Aa@i@GgAAwBJu@CQC[Kg@YcCaCsE{EwAmAoFiF}@_AmAaBuB}DqAsBuAcCiGeKgFgIiDwFsBwDeC_EYq@Y{@ScA_BwNw@{B}Q_VkIgK{AkAm@]o@YwC{@oOeEcA[q@[kHsEaK}GoWyPu@q@_MkO_CyCUg@Wu@sDiOaAkE{A{Fi@kA}AoCeToXaGqHaCsCuEqFqRaT_KwK}AwAcBkAqTmN{[_U^{A_@zAmDeCs@y@k@mACa@QWUCQJEFgAJm@?w@OaMaD{K}C}@KkBCw@K?GEMOOM?KHG^OHiEdEc@^[LIES@o@aAWYoBcEsC}GcFkMoEcJ]_A_C_Ik@iC_@eC@YC]KWSSiCiDmB_EKgAcCaFc@UYE]RwEhG","routeName":"B_22_B"}},{"deviceType":"B","onlyOneRoute":false,"color":"8f4099","routeForward":{"duration":"00:29","name":"Cimitir - Europa Unita","moveDirection":"F","stations":[{"lng":24.13837,"geohash":"u81hmk1p8z","stationName":"Cimitir 1","lat":45.77037,"stationId":"SB_B_111_F_0"},{"lng":24.14043,"geohash":"u81hmkd82g","stationName":"Siretului 1","lat":45.77185,"stationId":"SB_B_111_F_1"},{"lng":24.14761,"geohash":"u81hmkxu00","stationName":"Ciresica 1","lat":45.77248,"stationId":"SB_B_111_F_2"},{"lng":24.14863,"geohash":"u81hmsbrzg","stationName":"Calea Cisnadiei","lat":45.77451,"stationId":"SB_B_111_F_3"},{"lng":24.15349,"geohash":"u81hmth135","stationName":"Interex","lat":45.77477,"stationId":"SB_B_111_F_4"},{"lng":24.15725,"geohash":"u81hmtqy88","stationName":"Piata Rahova 1","lat":45.77703,"stationId":"SB_B_111_F_5"},{"lng":24.15323,"geohash":"u81hmw5c5p","stationName":"Cofetaria Primavara","lat":45.78024,"stationId":"SB_B_111_F_6"},{"lng":24.14829,"geohash":"u81hmw85pc","stationName":"Piata Aurel Vlaicu 1","lat":45.7833,"stationId":"SB_B_111_F_7"},{"lng":24.14947,"geohash":"u81hmx1p56","stationName":"C.E.C.","lat":45.78674,"stationId":"SB_B_111_F_8"},{"lng":24.14718,"geohash":"u81ht2pmy5","stationName":"A. Saguna","lat":45.79202,"stationId":"SB_B_111_F_9"},{"lng":24.14008,"geohash":"u81ht2620e","stationName":"MOL","lat":45.79241,"stationId":"SB_B_111_F_10"},{"lng":24.13373,"geohash":"u81ht0mehs","stationName":"Polsib 2","lat":45.79293,"stationId":"SB_B_111_F_11"},{"lng":24.12997,"geohash":"u81ht06vt5","stationName":"Mc Donald's","lat":45.79335,"stationId":"SB_B_111_F_12"},{"lng":24.12256,"geohash":"u81hsbmxb2","stationName":"Turnisor","lat":45.79372,"stationId":"SB_B_111_F_13"},{"lng":24.11038,"geohash":"u81hs8kdkw","stationName":"Ana Oil","lat":45.79281,"stationId":"SB_B_111_F_14"},{"lng":24.10905,"geohash":"u81hs8gdts","stationName":"Brandl 2","lat":45.79559,"stationId":"SB_B_111_F_15"},{"lng":24.10318,"geohash":"u81hs2z2hf","stationName":"Ambient 3","lat":45.79515,"stationId":"SB_B_111_F_16"},{"lng":24.09683,"geohash":"u81hs2df8v","stationName":"Kinzo 2","lat":45.79422,"stationId":"SB_B_111_F_17"},{"lng":24.0929,"geohash":"u81hs0rbvr","stationName":"Takata","lat":45.79256,"stationId":"SB_B_111_F_18"},{"lng":24.08859,"geohash":"u81hs0sc8b","stationName":" Phoenix M.P. 2","lat":45.79402,"stationId":"SB_B_111_F_19"},{"lng":24.08388,"geohash":"u81hs1137n","stationName":"Aeronamic","lat":45.79676,"stationId":"SB_B_111_F_20"},{"lng":24.08645,"geohash":"u81hs174yy","stationName":"Harting","lat":45.79839,"stationId":"SB_B_111_F_21"},{"lng":24.08704,"geohash":"u81hs15dss","stationName":"Biomin","lat":45.79696,"stationId":"SB_B_111_F_22"},{"lng":24.08568,"geohash":"u81hs0f8vn","stationName":"Atlanta","lat":45.7953,"stationId":"SB_B_111_F_23"}],"routeWayPoints":[],"routeWayPointsEncoded":"_pjvGeoirC[]s@@oGaHNYtAcGr@cD?_@Gm@{@}F_CoN_@{@EwIoBa@}F^c@[KYe@_\\EcAU}A_@oAi@mAu@cAu@o@g@][c@{@}AsBcEWaA_AkBBG@e@GSIISEULI^D`@eDjIyBjFQTOBMJIRAd@DR{Qpd@a@t@M@SP{@Hy@@gHcB}RoFaAIcA?kAMCSQQM?KHG^OHiEdEc@^[LIEM?KDKX?XiAhA[n@_A|ByDjIoAdCW\\}AjAKNKXCh@Hl@zBzHDh@Ct@DVt@`@Z`@rDxIH^Dh@@|@OlB_@xCkA`LwAlLc@~AMLCRFh@[tCKj@K\\KFGNCPBTFNFB\\zAx@~ID`AC|@gBdZMz@EfAEvFEtANtAPlFFlFBrFJ~CpCba@SzANtCeIvAsE|@aALKFGLG\\R|DbEtj@Ch@?r@ZvDXfAbAzLNbAKPEd@L^JJL?LEN]?g@f@_@NEN?LDTXpBfN|@pH~AtOaJdEaBj@aHrBzAdPyDfBw@vByNnGqAmQDsA`IkCjKcDTQ`A~J","routeName":"B_111_F"},"name":"Cimitir - Europa Unita","lineNumber":"111","routeBackward":{"duration":"00:28","name":"Europa Unita - Cimitir","moveDirection":"B","stations":[{"lng":24.08568,"geohash":"u81hs0f8vn","stationName":"Atlanta","lat":45.7953,"stationId":"SB_B_111_B_0"},{"lng":24.08388,"geohash":"u81hs1137n","stationName":"Aeronamic","lat":45.79676,"stationId":"SB_B_111_B_1"},{"lng":24.08645,"geohash":"u81hs174yy","stationName":"Harting","lat":45.79839,"stationId":"SB_B_111_B_2"},{"lng":24.08704,"geohash":"u81hs15dss","stationName":"Biomin","lat":45.79696,"stationId":"SB_B_111_B_3"},{"lng":24.08855,"geohash":"u81hs0s9pu","stationName":" Phoenix M.P. 1","lat":45.79396,"stationId":"SB_B_111_B_4"},{"lng":24.0942,"geohash":"u81hs22f5t","stationName":"Siemens","lat":45.79276,"stationId":"SB_B_111_B_5"},{"lng":24.09701,"geohash":"u81hs2dfmj","stationName":"Kinzo 1","lat":45.79418,"stationId":"SB_B_111_B_6"},{"lng":24.1051,"geohash":"u81hs8bc1x","stationName":"Ambient 2","lat":45.79535,"stationId":"SB_B_111_B_7"},{"lng":24.10906,"geohash":"u81hs8exjg","stationName":"Brandl 1","lat":45.79498,"stationId":"SB_B_111_B_8"},{"lng":24.12295,"geohash":"u81hsbmy92","stationName":"Bosch","lat":45.79351,"stationId":"SB_B_111_B_9"},{"lng":24.13038,"geohash":"u81ht07hyw","stationName":"Lidl","lat":45.79324,"stationId":"SB_B_111_B_10"},{"lng":24.13502,"geohash":"u81ht0q8fd","stationName":"Polsib 1","lat":45.79253,"stationId":"SB_B_111_B_11"},{"lng":24.14078,"geohash":"u81ht26c2c","stationName":"Alba Iulia","lat":45.79261,"stationId":"SB_B_111_B_12"},{"lng":24.14663,"geohash":"u81ht2p43r","stationName":"Casa Armatei","lat":45.79144,"stationId":"SB_B_111_B_13"},{"lng":24.14882,"geohash":"u81hmx08u7","stationName":"Lomonosov","lat":45.78567,"stationId":"SB_B_111_B_14"},{"lng":24.14968,"geohash":"u81hmw362m","stationName":"Bloc 1 Mihai Viteazu","lat":45.78182,"stationId":"SB_B_111_B_15"},{"lng":24.15318,"geohash":"u81hmw5b1c","stationName":"Bloc 9 Mihai Viteazu","lat":45.78004,"stationId":"SB_B_111_B_16"},{"lng":24.15728,"geohash":"u81hmtwu13","stationName":"Piata Rahova 3","lat":45.77798,"stationId":"SB_B_111_B_17"},{"lng":24.1496,"geohash":"u81hmt9hy2","stationName":"Nicolae Iorga","lat":45.7781,"stationId":"SB_B_111_B_18"},{"lng":24.14751,"geohash":"u81hmkxstc","stationName":"Ciresica 2","lat":45.77257,"stationId":"SB_B_111_B_19"},{"lng":24.14041,"geohash":"u81hmkd90m","stationName":"Siretului 2","lat":45.77199,"stationId":"SB_B_111_B_20"},{"lng":24.13837,"geohash":"u81hmk1p8z","stationName":"Cimitir 1","lat":45.77037,"stationId":"SB_B_111_B_21"}],"routeWayPoints":[],"routeWayPointsEncoded":"mkovGmf_rCC?NdByDfBw@vByNnGqAmQDsAbGqBhM}DTQLOzEuALo@zAg@xEuBnDcBQwAsBkScCyPO_@YQO?ODg@^EKUQWDOcAcA{LOe@Ia@[wD?s@Bi@gCu\\s@eKY{E?o@FOPO`Q}CNYJ_@NSHCi@wHa@aFeB}WKqMGoD@qANkCKkAGaDB{FfBeZB}@EaAy@_JBeBDG@UCy@@_@XmCLg@HCHO@UCQBkBt@_G|BsS\\oDB{@Ei@Ko@Uo@cC}Fk@}Ae@cAc@kAoB{GQu@Cm@He@Z_@RQLGjDbDtHwK`@q@w@mAk@oA[yA?g@Ni@l@w@n@q@\\WPAPQBURUlEkEr@i@PHfB[bA?`AHdDz@lI~B|GfBrCn@vBt@BFJHT?HEHKDO\\wB^kAlMq[|AwDHIL@JCLIHU@]EWIOUKPU`DyH|B}FFJHFH@NC`AlBb@n@rBbEz@|AZb@JH[r@s@~@sJhLZ~ANjALlCAdA_@dMtF^hIb@~@?nBI|F_@nB`@DvI^z@VvAfBvKz@|FFl@?^s@bDuAbGOXzJrKGk@Me@","routeName":"B_111_B"}},{"deviceType":"B","onlyOneRoute":false,"color":"8f4099","routeForward":{"duration":"00:27","name":"Zona Industriala Est - S.C. Continental","moveDirection":"F","stations":[{"lng":24.1914,"geohash":"u81hqrx9s6","stationName":"Irmes","lat":45.78854,"stationId":"SB_B_112_F_0"},{"lng":24.18882,"geohash":"u81hqrtc2q","stationName":"CGS","lat":45.78852,"stationId":"SB_B_112_F_1"},{"lng":24.18239,"geohash":"u81hqr90d8","stationName":"Cantina Industriala 2","lat":45.78836,"stationId":"SB_B_112_F_2"},{"lng":24.17443,"geohash":"u81hqp571n","stationName":"Piata Vasile Aaron","lat":45.78607,"stationId":"SB_B_112_F_3"},{"lng":24.1691,"geohash":"u81hmyx6ub","stationName":"Liceul Energetic","lat":45.78325,"stationId":"SB_B_112_F_4"},{"lng":24.16181,"geohash":"u81hmyf1fz","stationName":"Moldoveanu","lat":45.78449,"stationId":"SB_B_112_F_5"},{"lng":24.15237,"geohash":"u81hmxe1rh","stationName":"Politie","lat":45.78851,"stationId":"SB_B_112_F_6"},{"lng":24.14718,"geohash":"u81ht2pmy5","stationName":"A. Saguna","lat":45.79202,"stationId":"SB_B_112_F_7"},{"lng":24.14008,"geohash":"u81ht2620e","stationName":"MOL","lat":45.79241,"stationId":"SB_B_112_F_8"},{"lng":24.13373,"geohash":"u81ht0mehs","stationName":"Polsib 2","lat":45.79293,"stationId":"SB_B_112_F_9"},{"lng":24.12997,"geohash":"u81ht06vt5","stationName":"Mc Donald's","lat":45.79335,"stationId":"SB_B_112_F_10"},{"lng":24.12256,"geohash":"u81hsbmxb2","stationName":"Turnisor","lat":45.79372,"stationId":"SB_B_112_F_11"},{"lng":24.10917,"geohash":"u81hs87b8q","stationName":"Ambient","lat":45.79251,"stationId":"SB_B_112_F_12"},{"lng":24.10423,"geohash":"u81hs80ht6","stationName":"Simpa 2","lat":45.7918,"stationId":"SB_B_112_F_13"},{"lng":24.09702,"geohash":"u81hkrfyv3","stationName":"IOMCOOP","lat":45.79081,"stationId":"SB_B_112_F_14"},{"lng":24.09252,"geohash":"u81hkpzek3","stationName":"Aeroport 2","lat":45.79021,"stationId":"SB_B_112_F_15"},{"lng":24.08755,"geohash":"u81hkpsp0t","stationName":"Bricomat","lat":45.7895,"stationId":"SB_B_112_F_16"},{"lng":24.0836,"geohash":"u81hkp95uw","stationName":"RAR","lat":45.78895,"stationId":"SB_B_112_F_17"},{"lng":24.07745,"geohash":"u81hebktt5","stationName":"SNR Rulmenti","lat":45.79335,"stationId":"SB_B_112_F_18"},{"lng":24.07706,"geohash":"u81heck2kh","stationName":"Continental","lat":45.79795,"stationId":"SB_B_112_F_19"}],"routeWayPoints":[],"routeWayPointsEncoded":"canvGm{srCC?TtYTh`@I~AYnAc@lAyAnC{@zBO|@?x@Dl@Lj@nCfH^hCHNLHP@LIJUz@i@z@J\\N`@V~AhBzAjB^n@~Xvo@Hf@kSxf@kCzGwDfL}AjE}Hf\\o@pBg@z@EAQLGP?JSL_FzEe@RQGKBIHEJCZ@DiAhAm@pAc@jAkGvMQV[ZeAv@[^Id@Bl@Pt@nBzGDp@?~@DHFD`@Nb@h@`DrHRj@Jn@Dh@Cz@]nD}BrSu@~Fc@~AIFEN?RDLA\\[tCU|@OLEP?RDRJJ\\zA|@rJ@z@kBt[Q~AIhHEp@@^P~AJjCR`SdB|W`@`FpGx}@fGlz@\\lFE@ILAPDNHDJ?|F~w@l@jJQbDU~BYd@iB`@es@xE?UK@I_@i@F","routeName":"B_112_F"},"name":"Zona Industriala Est - S.C. Continental","lineNumber":"112","routeBackward":{"duration":"00:29","name":"S.C. Continental - Zona Industriala Est","moveDirection":"B","stations":[{"lng":24.07706,"geohash":"u81heck2kh","stationName":"Continental","lat":45.79795,"stationId":"SB_B_112_B_0"},{"lng":24.08645,"geohash":"u81hs174yy","stationName":"Harting","lat":45.79839,"stationId":"SB_B_112_B_1"},{"lng":24.08704,"geohash":"u81hs15dss","stationName":"Biomin","lat":45.79696,"stationId":"SB_B_112_B_2"},{"lng":24.08855,"geohash":"u81hs0s9pu","stationName":" Phoenix M.P. 1","lat":45.79396,"stationId":"SB_B_112_B_3"},{"lng":24.09302,"geohash":"u81hkrb4b1","stationName":"Aeroport 1","lat":45.79012,"stationId":"SB_B_112_B_4"},{"lng":24.09647,"geohash":"u81hkrft8q","stationName":"Vama ","lat":45.79062,"stationId":"SB_B_112_B_5"},{"lng":24.10622,"geohash":"u81hs81te8","stationName":"Simpa 1","lat":45.79196,"stationId":"SB_B_112_B_6"},{"lng":24.10914,"geohash":"u81hs85xzd","stationName":"Metro","lat":45.79236,"stationId":"SB_B_112_B_7"},{"lng":24.12295,"geohash":"u81hsbmy92","stationName":"Bosch","lat":45.79351,"stationId":"SB_B_112_B_8"},{"lng":24.13038,"geohash":"u81ht07hyw","stationName":"Lidl","lat":45.79324,"stationId":"SB_B_112_B_9"},{"lng":24.13502,"geohash":"u81ht0q8fd","stationName":"Polsib 1","lat":45.79253,"stationId":"SB_B_112_B_10"},