{"allLines":[{"deviceType":"B","onlyOneRoute":false,"color":"8f4099","routeForward":{"duration":"00:45","name":"SERE (I.C.R.A.L.) - VARIANTA BD. AUREL VLAICU - TOMIS NORD","moveDirection":"F","stations":[{"lng":28.6026003352,"geohash":"sxu74vec8z","stationName":"CL Confort Urban - KM 5","lat":44.1516050727,"stationId":"CT_B_1_F_0"},{"lng":28.607432603,"geohash":"sxu74ypm9r","stationName":"Facultativa","lat":44.1550382503,"stationId":"CT_B_1_F_1"},{"lng":28.6097065798,"geohash":"sxu75p0bnq","stationName":"Piata CET","lat":44.1595795908,"stationId":"CT_B_1_F_2"},{"lng":28.6042654506,"geohash":"sxu74zkzxd","stationName":"Cumpenei","lat":44.1622211048,"stationId":"CT_B_1_F_3"},{"lng":28.59871,"geohash":"sxu74zbzy0","stationName":"Pan Dobrogea","lat":44.165,"stationId":"CT_B_1_F_4"},{"lng":28.5946760169,"geohash":"sxu769wjbp","stationName":"Alba Iulia","lat":44.1743034455,"stationId":"CT_B_1_F_5"},{"lng":28.5986349574,"geohash":"sxu76g2zsk","stationName":"TAR SA","lat":44.1842045018,"stationId":"CT_B_1_F_6"},{"lng":28.5957703582,"geohash":"sxu76dqfcw","stationName":"TAM","lat":44.1779038121,"stationId":"CT_B_1_F_7"},{"lng":28.6001348487,"geohash":"sxu76u1gr6","stationName":"Scut SA","lat":44.1875834684,"stationId":"CT_B_1_F_8"},{"lng":28.60196,"geohash":"sxu76ug2cv","stationName":"Bariera","lat":44.19129,"stationId":"CT_B_1_F_9"},{"lng":28.6053758851,"geohash":"sxu76vvz3d","stationName":"Metro","lat":44.197880736,"stationId":"CT_B_1_F_10"},{"lng":28.6077566138,"geohash":"sxu76yrx30","stationName":"Maritimo(VIVO)","lat":44.2006205246,"stationId":"CT_B_1_F_11"},{"lng":28.611391007,"geohash":"sxu77p45jw","stationName":"Obor","lat":44.2040431585,"stationId":"CT_B_1_F_12"},{"lng":28.6133978358,"geohash":"sxu77p7ws3","stationName":"Peco","lat":44.2059893563,"stationId":"CT_B_1_F_13"},{"lng":28.617763599,"geohash":"sxu77pqz6n","stationName":"Scapino","lat":44.206142812,"stationId":"CT_B_1_F_14"},{"lng":28.6215079628,"geohash":"sxu77r193k","stationName":"Boema","lat":44.2037286159,"stationId":"CT_B_1_F_15"},{"lng":28.6233949653,"geohash":"sxu77qfzv6","stationName":"Brotacei","lat":44.2034632475,"stationId":"CT_B_1_F_16"},{"lng":28.62727,"geohash":"sxu77qt9rx","stationName":"Bd. Tomis","lat":44.201,"stationId":"CT_B_1_F_17"}],"routeWayPoints":[],"routeWayPointsEncoded":"cjnlGgmqmD_C{DsDmFe`@_j@BC@IASIMQ?IH?`@In@cOd`@u@vAiAhDiAzCkAdCuL|ZgFtLe@z@k@t@q@p@y@f@{@X{@LsV~A_Gf@yARiDRyA@mEYmB[uDcAyLcEkT{HuUeIuJkDaEoAMI{UoJ{@qAGEI?o@PO?mP_HaAi@mImDwCiB_KcKwWwXeGkGcC_C_BsAu@_AY}A?WHkALeAlA}AhM_UnDqGhDcHcCwC_DcCpFmMjGqLb@BxAxC\\`@n@lAm@mA","routeName":"B_1_F"},"name":"KM5 (Sere ) - Aurel Vlaicu - Tomis Nord","lineNumber":"1","routeBackward":{"duration":"00:45","name":"TOMIS NORD -  VARIANTA BD. AUREL VLAICU -SERE (I.C.R.A.L.) ","moveDirection":"B","stations":[{"lng":28.62727,"geohash":"sxu77qt9rx","stationName":"Bd. Tomis","lat":44.201,"stationId":"CT_B_1_B_0"},{"lng":28.6222267948,"geohash":"sxu77r404h","stationName":"Boema","lat":44.203514033,"stationId":"CT_B_1_B_1"},{"lng":28.6178258263,"geohash":"sxu77pwb7w","stationName":"Scapino","lat":44.2063173933,"stationId":"CT_B_1_B_2"},{"lng":28.6134294859,"geohash":"sxu77pe8jn","stationName":"Peco","lat":44.2062735319,"stationId":"CT_B_1_B_3"},{"lng":28.6109940401,"geohash":"sxu77p1fk7","stationName":"Obor","lat":44.2038970276,"stationId":"CT_B_1_B_4"},{"lng":28.60746,"geohash":"sxu76yrq4p","stationName":"VIVO","lat":44.20044,"stationId":"CT_B_1_B_5"},{"lng":28.6047750703,"geohash":"sxu76vvk58","stationName":"Metro","lat":44.1973115332,"stationId":"CT_B_1_B_6"},{"lng":28.6018750659,"geohash":"sxu76ug4xv","stationName":"Bariera","lat":44.1915899701,"stationId":"CT_B_1_B_7"},{"lng":28.5997829429,"geohash":"sxu76u18zn","stationName":"TAM SA","lat":44.1871749561,"stationId":"CT_B_1_B_8"},{"lng":28.5985802403,"geohash":"sxu76g8f5j","stationName":"TAR SA","lat":44.1846353462,"stationId":"CT_B_1_B_9"},{"lng":28.5945258132,"geohash":"sxu769tcsd","stationName":"Alba Iulia","lat":44.1735485641,"stationId":"CT_B_1_B_10"},{"lng":28.59935,"geohash":"sxu74zcmj1","stationName":"Fabrica de paine Dobrogea","lat":44.16453,"stationId":"CT_B_1_B_11"},{"lng":28.60066,"geohash":"sxu74zf35x","stationName":"Lukoil","lat":44.16388,"stationId":"CT_B_1_B_12"},{"lng":28.6053930512,"geohash":"sxu74zmf3g","stationName":"Cumpenei","lat":44.1613236806,"stationId":"CT_B_1_B_13"},{"lng":28.6100708238,"geohash":"sxu75nchyz","stationName":"Piata CET","lat":44.1590300303,"stationId":"CT_B_1_B_14"},{"lng":28.606621503,"geohash":"sxu74yneyx","stationName":"Facultativa","lat":44.1547365081,"stationId":"CT_B_1_B_15"},{"lng":28.6026003352,"geohash":"sxu74vec8z","stationName":"CL Confort Urban - KM 5","lat":44.1516050727,"stationId":"CT_B_1_B_16"}],"routeWayPoints":[],"routeWayPointsEncoded":"u`xlG}jvmDeBoCG}@KSGCMBEH?ZLLH?V\\fGrJ{Td`@yRp]mA|AgBtB~CpE~ArAbC~BxZz[bPjPvChBpGnC^lADFHBNE|@KlP~Gx@f@rA\\vSnITZJ\\?ZFTPHPCdEFtJjDtUdItRdHhCx@xJfDnBh@~Cl@lEXxAApE[pHs@rV_Bz@Mz@Yx@g@l@k@n@{@d@{@nHaQlJqVjAeCrCeIt@wAbOe`@Za@HADEX\\hJrM`TjZrDlF`C`E","routeName":"B_1_B"}},{"deviceType":"B","onlyOneRoute":false,"color":"8f4099","routeForward":{"duration":"00:50","name":"TOMIS NORD - CENTRU - GARĂ C.F.R. - POARTA 6 PORT","moveDirection":"F","stations":[{"lng":28.62399,"geohash":"sxu7e27m76","stationName":"Cap Linie Tomis Nord","lat":44.21127,"stationId":"CT_B_2-43_F_0"},{"lng":28.62036,"geohash":"sxu7e208we","stationName":"Dobrila Eugeniu","lat":44.20909,"stationId":"CT_B_2-43_F_1"},{"lng":28.6234078399,"geohash":"sxu77r6btx","stationName":"Brotacei","lat":44.2049883857,"stationId":"CT_B_2-43_F_2"},{"lng":28.62465,"geohash":"sxu77qev6d","stationName":"Furnicuta","lat":44.20166,"stationId":"CT_B_2-43_F_3"},{"lng":28.62798798,"geohash":"sxu77qq283","stationName":"Tomis 3","lat":44.1994671676,"stationId":"CT_B_2-43_F_4"},{"lng":28.6332343808,"geohash":"sxu77tdhdw","stationName":"Dacia","lat":44.1960565754,"stationId":"CT_B_2-43_F_5"},{"lng":28.6396180383,"geohash":"sxu77sy9rk","stationName":"Colegiul Tehnic Tomis","lat":44.1913718813,"stationId":"CT_B_2-43_F_6"},{"lng":28.6421071282,"geohash":"sxu77u2892","stationName":"Spitalul Judetean","lat":44.1884747232,"stationId":"CT_B_2-43_F_7"},{"lng":28.64476,"geohash":"sxu77gdrzk","stationName":"Institutul de Proiectari","lat":44.18562,"stationId":"CT_B_2-43_F_8"},{"lng":28.6452925197,"geohash":"sxu77g4z5x","stationName":"Colegiu Constantin Brătescu","lat":44.1827592267,"stationId":"CT_B_2-43_F_9"},{"lng":28.6504,"geohash":"sxu77fqx4t","stationName":"Piata Unirii","lat":44.17863,"stationId":"CT_B_2-43_F_10"},{"lng":28.64975,"geohash":"sxu77fq17w","stationName":"Centru","lat":44.17765,"stationId":"CT_B_2-43_F_11"},{"lng":28.6457533232,"geohash":"sxu77cgnqk","stationName":"Republica","lat":44.1757496974,"stationId":"CT_B_2-43_F_12"},{"lng":28.64167,"geohash":"sxu77c81rk","stationName":"Politie","lat":44.17352,"stationId":"CT_B_2-43_F_13"},{"lng":28.63888,"geohash":"sxu779nhy2","stationName":"Spital boli infectioase","lat":44.17135,"stationId":"CT_B_2-43_F_14"},{"lng":28.6335777036,"geohash":"sxu778dm6e","stationName":"Gara CFR (Th.Burada)","lat":44.1687035498,"stationId":"CT_B_2-43_F_15"},{"lng":28.63344,"geohash":"sxu77844xx","stationName":"Stadionul Portul","lat":44.16551,"stationId":"CT_B_2-43_F_16"},{"lng":28.6320981971,"geohash":"sxu75x9681","stationName":"Facultativa","lat":44.1627313836,"stationId":"CT_B_2-43_F_17"},{"lng":28.631453394,"geohash":"sxu75wbv11","stationName":"Far","lat":44.1590369575,"stationId":"CT_B_2-43_F_18"},{"lng":28.6307994715,"geohash":"sxu75w021f","stationName":"Faleza Sud","lat":44.1540687442,"stationId":"CT_B_2-43_F_19"},{"lng":28.6297587744,"geohash":"sxu75mxect","stationName":"Plopilor","lat":44.1519784212,"stationId":"CT_B_2-43_F_20"},{"lng":28.6283216468,"geohash":"sxu75mne2n","stationName":"Petru Cercel","lat":44.1491532306,"stationId":"CT_B_2-43_F_21"},{"lng":28.6310998789,"geohash":"sxu75s890v","stationName":"NAVROM","lat":44.1460126455,"stationId":"CT_B_2-43_F_22"},{"lng":28.6317221514,"geohash":"sxu75s0cp7","stationName":"Complex","lat":44.1432560756,"stationId":"CT_B_2-43_F_23"},{"lng":28.6317006937,"geohash":"sxu75e2gny","stationName":"Facultativa","lat":44.1394988341,"stationId":"CT_B_2-43_F_24"},{"lng":28.6328814021,"geohash":"sxu75e1gfq","stationName":"Poarta 6 Port","lat":44.1382515003,"stationId":"CT_B_2-43_F_25"}],"routeWayPoints":[],"routeWayPointsEncoded":"s_zlGcrumDAAe@lAR`@|C|EpDrFxHrFz@Fz@[f@_@PS~FgKdCyDzAmC~@kBdAp@pBlBx@`Ax@p@b@}@pAmBzJqPP_@hAmBzHiM~DeHnEoIvBmDlIcPxDqG|BwClBwB|OaNrI_HlE}DnAaAB?z@oAjE{DzEdEX^x@_AAA~@eAxFcHnAcB~C_FzE{FhG_IhBhE|AfErAdDfB~ErA`DfBvEf@fAjCdHbAvBt@xArApB\\`@dA~AfB|BlF|HtAxBZt@b@lBnFzW~Am@|A}@NS^s@|@aCj@OTBb@RbAxAv@z@ZRnK~EvDrArGvAtCd@hKp@dCDlAEVDzAb@v@ZTwEbFvCr@TzFz@`F~AfGdC~DxAjFxBjIdD~AcKVsATO~C{@tFeAdHmBn`@?@mFnCC","routeName":"B_2-43_F"},"name":"Tomis Nord - Centru - Gara C.F.R. - Poarta 6","lineNumber":"2-43","routeBackward":{"duration":"00:50","name":"POARTA 6 PORT    - GARĂ C.F.R. -  CENTRU   - TOMIS NORD -","moveDirection":"B","stations":[{"lng":28.6328814021,"geohash":"sxu75e1gfq","stationName":"Poarta 6 Port","lat":44.1382515003,"stationId":"CT_B_2-43_B_0"},{"lng":28.6287937156,"geohash":"sxu757wbg0","stationName":"Facultativa","lat":44.140449716,"stationId":"CT_B_2-43_B_1"},{"lng":28.6279772511,"geohash":"sxu757ym0p","stationName":"Complex","lat":44.1425901066,"stationId":"CT_B_2-43_B_2"},{"lng":28.6271409384,"geohash":"sxu75kmxhw","stationName":"Liceul de Marina","lat":44.1456777528,"stationId":"CT_B_2-43_B_3"},{"lng":28.628375291,"geohash":"sxu75mn997","stationName":"Petru Cercel","lat":44.1488383713,"stationId":"CT_B_2-43_B_4"},{"lng":28.6299733511,"geohash":"sxu75mxewe","stationName":"Plopilor","lat":44.151924536,"stationId":"CT_B_2-43_B_5"},{"lng":28.6310135117,"geohash":"sxu75tbryu","stationName":"Faleza Sud","lat":44.1540337201,"stationId":"CT_B_2-43_B_6"},{"lng":28.6316990844,"geohash":"sxu75wbuqv","stationName":"Far","lat":44.1589330484,"stationId":"CT_B_2-43_B_7"},{"lng":28.632366418,"geohash":"sxu75x96qk","stationName":"Facultativa","lat":44.1627044459,"stationId":"CT_B_2-43_B_8"},{"lng":28.63362,"geohash":"sxu77846ex","stationName":"Stadionul Portul","lat":44.16551,"stationId":"CT_B_2-43_B_9"},{"lng":28.6339859358,"geohash":"sxu778f9k0","stationName":"Gara (Parc Ferdinand)","lat":44.1693773046,"stationId":"CT_B_2-43_B_10"},{"lng":28.63819,"geohash":"sxu779j8yj","stationName":"Spital boli infectioase","lat":44.17069,"stationId":"CT_B_2-43_B_11"},{"lng":28.6416,"geohash":"sxu77c2pm9","stationName":"Politie","lat":44.17316,"stationId":"CT_B_2-43_B_12"},{"lng":28.6445093146,"geohash":"sxu77cf612","stationName":"Republica","lat":44.1749963735,"stationId":"CT_B_2-43_B_13"},{"lng":28.6489188662,"geohash":"sxu77fjw8h","stationName":"Fantasio","lat":44.1771655202,"stationId":"CT_B_2-43_B_14"},{"lng":28.65205,"geohash":"sxu77frz90","stationName":"Centru","lat":44.17869,"stationId":"CT_B_2-43_B_15"},{"lng":28.6496484271,"geohash":"sxu77gq015","stationName":"CMJ","lat":44.1829131038,"stationId":"CT_B_2-43_B_16"},{"lng":28.6432926646,"geohash":"sxu77u33tj","stationName":"Spitalul Judeţean","lat":44.1886712821,"stationId":"CT_B_2-43_B_17"},{"lng":28.6398808947,"geohash":"sxu77tnbmd","stationName":"Stadion","lat":44.1925638597,"stationId":"CT_B_2-43_B_18"},{"lng":28.6328899852,"geohash":"sxu77t9yft","stationName":"Dacia","lat":44.1964415653,"stationId":"CT_B_2-43_B_19"},{"lng":28.6276983014,"geohash":"sxu77qq49w","stationName":"Tomis 3","lat":44.1998336753,"stationId":"CT_B_2-43_B_20"},{"lng":28.6233949653,"geohash":"sxu77qfzv6","stationName":"Brotacei","lat":44.2034632475,"stationId":"CT_B_2-43_B_21"},{"lng":28.62356,"geohash":"sxu77r709r","stationName":"Brotacei","lat":44.20499,"stationId":"CT_B_2-43_B_22"},{"lng":28.62289071,"geohash":"sxu77rfd3s","stationName":"Scoala 29","lat":44.2080231623,"stationId":"CT_B_2-43_B_23"},{"lng":28.62399,"geohash":"sxu7e27m76","stationName":"Cap Linie Tomis Nord","lat":44.21127,"stationId":"CT_B_2-43_B_24"}],"routeWayPoints":[],"routeWayPointsEncoded":"{vklGakwmD?GbA?A~AKvAOz@Md@_@bAqEfGuDtEsBlAaAZ_Ex@uKpBuE~@kEt@kFt@Gu@a@cDmMcFcHuC_EyAgGeCaF_B{F{@s@UcFwCOnCMPQL]J{Ac@WEmADeCEiKq@uCe@sGwA{Ag@{Ak@oK_F[Sg@g@sAmB}@}AeBvE_@r@SX[T_Bp@i@Gg@c@}DoSwAqEB?ISeF}H?@sBuCoGgIma@geAeErDaA`A}@dAkBfCmJnLiQbUoAzAmDxD{AtAaQxN}DvCkFlEb@vAJt@Eh@Id@S`@{@dAyDpGmIbPwBlDoEnI_EdHeHfL_BnCQ^eIvN_@\\iBxCc@Ji@E{AiB_DwB@CEE_AjBwBhDKCuBv@uARaEYuDw@}NyHs@fB","routeName":"B_2-43_B"}},{"deviceType":"B","onlyOneRoute":false,"color":"8f4099","routeForward":{"duration":"00:35","name":"Tomis Nord - Alex. Sahia - Palazu Mare","moveDirection":"F","stations":[{"lng":28.62371,"geohash":"sxu7e27hsc","stationName":"Cap Linie Tomis Nord","lat":44.21114,"stationId":"CT_B_3_F_0"},{"lng":28.62036,"geohash":"sxu7e208we","stationName":"Dobrila Eugeniu","lat":44.20909,"stationId":"CT_B_3_F_1"},{"lng":28.6234078399,"geohash":"sxu77r6btx","stationName":"Brotacei","lat":44.2049883857,"stationId":"CT_B_3_F_2"},{"lng":28.62727,"geohash":"sxu77qt9rx","stationName":"Bd. Tomis","lat":44.201,"stationId":"CT_B_3_F_3"},{"lng":28.6222267948,"geohash":"sxu77r404h","stationName":"Boema","lat":44.203514033,"stationId":"CT_B_3_F_4"},{"lng":28.6178258263,"geohash":"sxu77pwb7w","stationName":"Scapino","lat":44.2063173933,"stationId":"CT_B_3_F_5"},{"lng":28.6122391215,"geohash":"sxu7e06c93","stationName":"Sere","lat":44.2106232863,"stationId":"CT_B_3_F_6"},{"lng":28.60442,"geohash":"sxu7dcm4e3","stationName":"Gradina","lat":44.21629,"stationId":"CT_B_3_F_7"},{"lng":28.59793,"geohash":"sxu7df0msn","stationName":"Facultativa","lat":44.22095,"stationId":"CT_B_3_F_8"},{"lng":28.59319,"geohash":"sxu7dducmw","stationName":"O.N.R.C.","lat":44.22434,"stationId":"CT_B_3_F_9"},{"lng":28.5953,"geohash":"sxu7deq3nb","stationName":"Recoltei","lat":44.22701,"stationId":"CT_B_3_F_10"},{"lng":28.59719,"geohash":"sxu7dexvdf","stationName":"Facultativa","lat":44.22917,"stationId":"CT_B_3_F_11"},{"lng":28.59901,"geohash":"sxu7du1jj0","stationName":"Scoala","lat":44.23182,"stationId":"CT_B_3_F_12"},{"lng":28.6028192035,"geohash":"sxu7du5cjf","stationName":"Facultativa","lat":44.2311403196,"stationId":"CT_B_3_F_13"},{"lng":28.60686,"geohash":"sxu7dungh5","stationName":"Sanatoriu (Palazu mare)","lat":44.23149,"stationId":"CT_B_3_F_14"}],"routeWayPoints":[],"routeWayPointsEncoded":"s}}lGohrmDz@fEEpQOhDc@~CoAfHN|@[tBg@nGrTpBpBtAdItLxHpLrhBisCfTi[jXmf@}GeKmQl_@yLlSc@n@k@j@eAXw@EuHmFuI}Mb@_A","routeName":"B_3_F"},"name":"Tomis Nord - Sanatoriu  - Tomis Plus - Tomis Nord ","lineNumber":"3","routeBackward":{"duration":"00:35","name":"Palazu Mare (Sanatoriu) - Dumbraveni - Tomis Plus-Tomis Nord","moveDirection":"B","stations":[{"lng":28.60686,"geohash":"sxu7dungh5","stationName":"Sanatoriu (Palazu mare)","lat":44.23149,"stationId":"CT_B_3_B_0"},{"lng":28.6025831691,"geohash":"sxu7du5cbm","stationName":"Facultativa","lat":44.2312863828,"stationId":"CT_B_3_B_1"},{"lng":28.59967,"geohash":"sxu7du1eux","stationName":"Scoala","lat":44.23164,"stationId":"CT_B_3_B_2"},{"lng":28.5993645182,"geohash":"sxu7dg9qv3","stationName":"Facultativa","lat":44.2293798443,"stationId":"CT_B_3_B_3"},{"lng":28.5989675513,"geohash":"sxu7dg15hh","stationName":"Recoltei","lat":44.2260048121,"stationId":"CT_B_3_B_4"},{"lng":28.5985169402,"geohash":"sxu7df2y9x","stationName":"Facultativa","lat":44.2224988791,"stationId":"CT_B_3_B_5"},{"lng":28.59771,"geohash":"sxu7df04wv","stationName":"Krakovia","lat":44.22043,"stationId":"CT_B_3_B_6"},{"lng":28.59597,"geohash":"sxu7d9wunr","stationName":"Napoli","lat":44.21795,"stationId":"CT_B_3_B_7"},{"lng":28.59943,"geohash":"sxu7dccqz4","stationName":"Tomis Plus","lat":44.21977,"stationId":"CT_B_3_B_8"},{"lng":28.6046645633,"geohash":"sxu7dcm22u","stationName":"Gradina","lat":44.2159170023,"stationId":"CT_B_3_B_9"},{"lng":28.6114130011,"geohash":"sxu7e065yp","stationName":"Sere","lat":44.2110416333,"stationId":"CT_B_3_B_10"},{"lng":28.617763599,"geohash":"sxu77pqz6n","stationName":"Scapino","lat":44.206142812,"stationId":"CT_B_3_B_11"},{"lng":28.6215079628,"geohash":"sxu77r193k","stationName":"Boema","lat":44.2037286159,"stationId":"CT_B_3_B_12"},{"lng":28.62465,"geohash":"sxu77qev6d","stationName":"Furnicuta","lat":44.20166,"stationId":"CT_B_3_B_13"},{"lng":28.62784,"geohash":"sxu77qw4tn","stationName":"Tomis 3","lat":44.20121,"stationId":"CT_B_3_B_14"},{"lng":28.62356,"geohash":"sxu77r709r","stationName":"Brotacei","lat":44.20499,"stationId":"CT_B_3_B_15"},{"lng":28.62289071,"geohash":"sxu77rfd3s","stationName":"Scoala 29","lat":44.2080231623,"stationId":"CT_B_3_B_16"},{"lng":28.62371,"geohash":"sxu7e27hsc","stationName":"Cap Linie Tomis Nord","lat":44.21114,"stationId":"CT_B_3_B_17"}],"routeWayPoints":[],"routeWayPointsEncoded":"m_zlGopumDpA_DjH`EvCfApBf@|Br@xENhA[dAi@j@ShCwEvDgJ|BsEbFsJAQDSVHA^f@dAtFtI}KbRqTd`@iFlJ{MjPk[lf@_a@|m@gErHB`@IZf@tAVPBd@zH|KxBiCsBtCeIkLO?MI?[g@wBSBOOCo@eF_@wBGsBQqOy@sGe@_SaAiCQ_BGi@@_@e@X}CvAqGFcP?qFo@uD","routeName":"B_3_B"}},{"deviceType":"B","onlyOneRoute":false,"color":"8f4099","routeForward":{"duration":"00:30","name":"Tomis Nord - Targ legume","moveDirection":"F","stations":[{"lng":28.62399,"geohash":"sxu7e27m76","stationName":"Cap Linie Tomis Nord","lat":44.21127,"stationId":"CT_B_3B_F_0"},{"lng":28.62036,"geohash":"sxu7e208we","stationName":"Dobrila Eugeniu","lat":44.20909,"stationId":"CT_B_3B_F_1"},{"lng":28.6234078399,"geohash":"sxu77r6btx","stationName":"Brotacei","lat":44.2049883857,"stationId":"CT_B_3B_F_2"},{"lng":28.6222267948,"geohash":"sxu77r404h","stationName":"Boema","lat":44.203514033,"stationId":"CT_B_3B_F_3"},{"lng":28.6178258263,"geohash":"sxu77pwb7w","stationName":"Scapino","lat":44.2063173933,"stationId":"CT_B_3B_F_4"},{"lng":28.6134294859,"geohash":"sxu77pe8jn","stationName":"Peco","lat":44.2062735319,"stationId":"CT_B_3B_F_5"},{"lng":28.6109940401,"geohash":"sxu77p1fk7","stationName":"Obor","lat":44.2038970276,"stationId":"CT_B_3B_F_6"},{"lng":28.6084529153,"geohash":"sxu77n8h9k","stationName":"Targ","lat":44.2015427325,"stationId":"CT_B_3B_F_7"},{"lng":28.6047750703,"geohash":"sxu76vvk58","stationName":"Metro","lat":44.1973115332,"stationId":"CT_B_3B_F_8"},{"lng":28.6018750659,"geohash":"sxu76ug4xv","stationName":"Bariera","lat":44.1915899701,"stationId":"CT_B_3B_F_9"},{"lng":28.59268,"geohash":"sxu76wk89w","stationName":"Facultativa","lat":44.19949,"stationId":"CT_B_3B_F_10"},{"lng":28.5905024997,"geohash":"sxu76wfuqu","stationName":"Targ legume","lat":44.2028702558,"stationId":"CT_B_3B_F_11"}],"routeWayPoints":[],"routeWayPointsEncoded":"}~ylGasumDi@hAGZBX~FlJhDzEfAdAj@`@p@R|@Jf@@h@GhAo@nB_DfGkKtDeGHShBlA`BvAN^b@x@@h@MpAsVlc@mA|AgBtB~CpE~ArAbC~BdGjGvWvX~JbKvChBpGnC\\hAJLH@HE~@KlP~Gz@h@pAZvSnITZJ\\?ZK`@OZkA\\o@Xw@d@ct@pf@sD|ByBxAmAp@yCvAwHzC","routeName":"B_3B_F"},"name":"Ciresica - Targ legume","lineNumber":"3B","routeBackward":{"duration":"00:30","name":"Targ legume - Tomis Nord","moveDirection":"B","stations":[{"lng":28.5905024997,"geohash":"sxu76wfuqu","stationName":"Targ legume","lat":44.2028702558,"stationId":"CT_B_3B_B_0"},{"lng":28.59268,"geohash":"sxu76wk89w","stationName":"Facultativa","lat":44.19949,"stationId":"CT_B_3B_B_1"},{"lng":28.60196,"geohash":"sxu76ug2cv","stationName":"Bariera","lat":44.19129,"stationId":"CT_B_3B_B_2"},{"lng":28.6053758851,"geohash":"sxu76vvz3d","stationName":"Metro","lat":44.197880736,"stationId":"CT_B_3B_B_3"},{"lng":28.6077566138,"geohash":"sxu76yrx30","stationName":"Maritimo(VIVO)","lat":44.2006205246,"stationId":"CT_B_3B_B_4"},{"lng":28.611391007,"geohash":"sxu77p45jw","stationName":"Obor","lat":44.2040431585,"stationId":"CT_B_3B_B_5"},{"lng":28.6133978358,"geohash":"sxu77p7ws3","stationName":"Peco","lat":44.2059893563,"stationId":"CT_B_3B_B_6"},{"lng":28.617763599,"geohash":"sxu77pqz6n","stationName":"Scapino","lat":44.206142812,"stationId":"CT_B_3B_B_7"},{"lng":28.6215079628,"geohash":"sxu77r193k","stationName":"Boema","lat":44.2037286159,"stationId":"CT_B_3B_B_8"},{"lng":28.6233949653,"geohash":"sxu77qfzv6","stationName":"Brotacei","lat":44.2034632475,"stationId":"CT_B_3B_B_9"},{"lng":28.62289071,"geohash":"sxu77rfd3s","stationName":"Scoala 29","lat":44.2080231623,"stationId":"CT_B_3B_B_10"},{"lng":28.62399,"geohash":"sxu7e27m76","stationName":"Cap Linie Tomis Nord","lat":44.21127,"stationId":"CT_B_3B_B_11"}],"routeWayPoints":[],"routeWayPointsEncoded":"sjxlGocomD?@hHsCdBy@|CaBtFqDrb@sYbRaMt@c@dBi@t@]H?LKFS?YIQMI{UoJ{@qAGEI?o@PO?mP_HaAi@mImDwCiBcPkP{Y_[aD{CgA}@c@c@i@q@UmAC[JeBJw@lA}ApXkf@eBwBaBwAiBmAIRaDjFM?oBz@iAVgBA}@IuFeAiMwG_@OMAKNWl@","routeName":"B_3B_B"}},{"deviceType":"B","onlyOneRoute":false,"color":"8f4099","routeForward":{"duration":"00:45","name":"Km 5 -  Centru - Campus","moveDirection":"F","stations":[{"lng":28.60236,"geohash":"sxu74v7xgk","stationName":"CL Sere","lat":44.15129,"stationId":"CT_B_5-40_F_0"},{"lng":28.6047611228,"geohash":"sxu74vmm7j","stationName":"Varful cu Dor","lat":44.1508660667,"stationId":"CT_B_5-40_F_1"},{"lng":28.6078510276,"geohash":"sxu74uzsgh","stationName":"Soseaua intre Vii","lat":44.1480254261,"stationId":"CT_B_5-40_F_2"},{"lng":28.6104152194,"geohash":"sxu75h3qwz","stationName":"Comarnic","lat":44.1455942218,"stationId":"CT_B_5-40_F_3"},{"lng":28.6138162604,"geohash":"sxu75h5uy5","stationName":"Scoala Ion Minulescu","lat":44.1438989403,"stationId":"CT_B_5-40_F_4"},{"lng":28.6111769668,"geohash":"sxu755d12t","stationName":"Facultativa","lat":44.1405652067,"stationId":"CT_B_5-40_F_5"},{"lng":28.6143634311,"geohash":"sxu755k36g","stationName":"Hatman Arbore","lat":44.1391793036,"stationId":"CT_B_5-40_F_6"},{"lng":28.6192557803,"geohash":"sxu755pfuy","stationName":"Facultativa","lat":44.1380782574,"stationId":"CT_B_5-40_F_7"},{"lng":28.618,"geohash":"sxu754ncrs","stationName":"Avia Motors","lat":44.13232,"stationId":"CT_B_5-40_F_8"},{"lng":28.6201355449,"geohash":"sxu756bd1r","stationName":"Tiriac Auto ","lat":44.1365844976,"stationId":"CT_B_5-40_F_9"},{"lng":28.6219809047,"geohash":"sxu7579bh3","stationName":"KM 5","lat":44.1403265257,"stationId":"CT_B_5-40_F_10"},{"lng":28.62327,"geohash":"sxu757fyde","stationName":"Salciilor","lat":44.14283,"stationId":"CT_B_5-40_F_11"},{"lng":28.6245665542,"geohash":"sxu75k7y0x","stationName":"Doraly Mall","lat":44.1455079961,"stationId":"CT_B_5-40_F_12"},{"lng":28.6287615291,"geohash":"sxu75qnb4k","stationName":"KM 4","lat":44.1540768267,"stationId":"CT_B_5-40_F_13"},{"lng":28.6316990844,"geohash":"sxu75wbuqv","stationName":"Far","lat":44.1589330484,"stationId":"CT_B_5-40_F_14"},{"lng":28.632366418,"geohash":"sxu75x96qk","stationName":"Facultativa","lat":44.1627044459,"stationId":"CT_B_5-40_F_15"},{"lng":28.63362,"geohash":"sxu77846ex","stationName":"Stadionul Portul","lat":44.16551,"stationId":"CT_B_5-40_F_16"},{"lng":28.6339859358,"geohash":"sxu778f9k0","stationName":"Gara (Parc Ferdinand)","lat":44.1693773046,"stationId":"CT_B_5-40_F_17"},{"lng":28.63819,"geohash":"sxu779j8yj","stationName":"Spital boli infectioase","lat":44.17069,"stationId":"CT_B_5-40_F_18"},{"lng":28.6416,"geohash":"sxu77c2pm9","stationName":"Politie","lat":44.17316,"stationId":"CT_B_5-40_F_19"},{"lng":28.6445093146,"geohash":"sxu77cf612","stationName":"Republica","lat":44.1749963735,"stationId":"CT_B_5-40_F_20"},{"lng":28.6489188662,"geohash":"sxu77fjw8h","stationName":"Fantasio","lat":44.1771655202,"stationId":"CT_B_5-40_F_21"},{"lng":28.65205,"geohash":"sxu77frz90","stationName":"Centru","lat":44.17869,"stationId":"CT_B_5-40_F_22"},{"lng":28.6496484271,"geohash":"sxu77gq015","stationName":"CMJ","lat":44.1829131038,"stationId":"CT_B_5-40_F_23"},{"lng":28.6475155345,"geohash":"sxu77gu3r6","stationName":"Bd Mamaia","lat":44.1858666976,"stationId":"CT_B_5-40_F_24"},{"lng":28.6510978928,"geohash":"sxu77urp4z","stationName":"Spitalul Militar","lat":44.18962868,"stationId":"CT_B_5-40_F_25"},{"lng":28.6501430264,"geohash":"sxu77vn7ue","stationName":"Universitate","lat":44.1931673401,"stationId":"CT_B_5-40_F_26"},{"lng":28.6482880107,"geohash":"sxu77vv53k","stationName":"Ion Ratiu","lat":44.1972057686,"stationId":"CT_B_5-40_F_27"},{"lng":28.6468385449,"geohash":"sxu77y7vps","stationName":"Ciprian Porumbescu","lat":44.2002517144,"stationId":"CT_B_5-40_F_28"},{"lng":28.6442432395,"geohash":"sxu77z6h70","stationName":"Delfinariu","lat":44.2055971224,"stationId":"CT_B_5-40_F_29"},{"lng":28.6431853763,"geohash":"sxu7eb37dx","stationName":"Neptun TV","lat":44.2109997218,"stationId":"CT_B_5-40_F_30"},{"lng":28.64288,"geohash":"sxu7eb9ngr","stationName":"Facultativa","lat":44.21293,"stationId":"CT_B_5-40_F_31"},{"lng":28.64246,"geohash":"sxu7ec0g38","stationName":"Pescarie","lat":44.21504,"stationId":"CT_B_5-40_F_32"},{"lng":28.63284,"geohash":"sxu7e9cb9w","stationName":"Perla Radio Constanta-Radio Vacanta","lat":44.21872,"stationId":"CT_B_5-40_F_33"},{"lng":28.62612,"geohash":"sxu7e3hvsz","stationName":"Campus","lat":44.21546,"stationId":"CT_B_5-40_F_34"}],"routeWayPoints":[],"routeWayPointsEncoded":"ihnlGyjqmDC@o@iAkCcEhFmFxRsTpKuKbDmDJSRwA|CeOrE`FnDpDhAdAp@\\tHbCpDyW~@iGtBiO`A{Hx_@tNtD|BPGR_@W_@iBe@iFqBeGgCyQ_H_@[@WIQGEO?s@NmAQaG{B@CUKaLmEwGoCmQ{GyBaA{R}HeQ}GwEmBu@a@kH{EuHsFw@[{Ac@WEmADeCEiKq@uCe@sGwAwDsAoK_F[Sw@{@cAyAc@SUCk@N}@`C_@r@SX[T_Bp@i@Gg@c@_AuEk@}BoB}Jc@mB[u@gF_IcEuFwDsFyBqEkCeHg@gAgBwEsAaDgB_FsAeD}AgE{AmDwAwDcDaI}DjDaA`A}@dAkBfCmJnLwKjNmAwCuD_Lq@cAo@k@_BgAoAq@sEuAuASe@Bs@JmCj@e@FyKxBACMB_B`@wSxH}Ad@{An@{HrCwB|@}VtJmG|BqExAeCd@_BPkGh@uI~@iPtAaBDgFh@_AXo@ZUPI?INu@f@s@l@k@`AgAhCcApDuCbQqFl`@_BxDhDtC|BhCxAzBvDfD`FvG","routeName":"B_5-40_F"},"name":"Km 5 - Centru - Campus","lineNumber":"5-40","routeBackward":{"duration":"00:45","name":"Campus - Centru - Km 5","moveDirection":"B","stations":[{"lng":28.62612,"geohash":"sxu7e3hvsz","stationName":"Campus","lat":44.21546,"stationId":"CT_B_5-40_B_0"},{"lng":28.62438,"geohash":"sxu7e2gts6","stationName":"Tomis Nord","lat":44.21406,"stationId":"CT_B_5-40_B_1"},{"lng":28.63284,"geohash":"sxu7e9cb9w","stationName":"Perla Radio Constanta-Radio Vacanta","lat":44.21872,"stationId":"CT_B_5-40_B_2"},{"lng":28.64215,"geohash":"sxu7ec0ddk","stationName":"Pescarie","lat":44.21493,"stationId":"CT_B_5-40_B_3"},{"lng":28.6426017276,"geohash":"sxu7eb8gsc","stationName":"Facultativa","lat":44.212341643,"stationId":"CT_B_5-40_B_4"},{"lng":28.642837762,"geohash":"sxu7eb346m","stationName":"Neptun TV","lat":44.2107724766,"stationId":"CT_B_5-40_B_5"},{"lng":28.6437604419,"geohash":"sxu77z3wpz","stationName":"Delfinariu","lat":44.2059355204,"stationId":"CT_B_5-40_B_6"},{"lng":28.64577,"geohash":"sxu77yennu","stationName":"Dragoslavele","lat":44.2018,"stationId":"CT_B_5-40_B_7"},{"lng":28.6472687713,"geohash":"sxu77yh73w","stationName":"Dorobanti","lat":44.1985899243,"stationId":"CT_B_5-40_B_8"},{"lng":28.6490926734,"geohash":"sxu77vmth4","stationName":"Ion Ratiu","lat":44.1947519755,"stationId":"CT_B_5-40_B_9"},{"lng":28.6499606362,"geohash":"sxu77vn227","stationName":"Turda","lat":44.1925673214,"stationId":"CT_B_5-40_B_10"},{"lng":28.64796,"geohash":"sxu77gugcv","stationName":"Bd Mamaia","lat":44.18631,"stationId":"CT_B_5-40_B_11"},{"lng":28.6452925197,"geohash":"sxu77g4z5x","stationName":"Colegiu Constantin Brătescu","lat":44.1827592267,"stationId":"CT_B_5-40_B_12"},{"lng":28.6504,"geohash":"sxu77fqx4t","stationName":"Piata Unirii","lat":44.17863,"stationId":"CT_B_5-40_B_13"},{"lng":28.64975,"geohash":"sxu77fq17w","stationName":"Centru","lat":44.17765,"stationId":"CT_B_5-40_B_14"},{"lng":28.6457533232,"geohash":"sxu77cgnqk","stationName":"Republica","lat":44.1757496974,"stationId":"CT_B_5-40_B_15"},{"lng":28.64167,"geohash":"sxu77c81rk","stationName":"Politie","lat":44.17352,"stationId":"CT_B_5-40_B_16"},{"lng":28.63888,"geohash":"sxu779nhy2","stationName":"Spital boli infectioase","lat":44.17135,"stationId":"CT_B_5-40_B_17"},{"lng":28.6335777036,"geohash":"sxu778dm6e","stationName":"Gara CFR (Th.Burada)","lat":44.1687035498,"stationId":"CT_B_5-40_B_18"},{"lng":28.63344,"geohash":"sxu77844xx","stationName":"Stadionul Portul","lat":44.16551,"stationId":"CT_B_5-40_B_19"},{"lng":28.6320981971,"geohash":"sxu75x9681","stationName":"Facultativa","lat":44.1627313836,"stationId":"CT_B_5-40_B_20"},{"lng":28.631453394,"geohash":"sxu75wbv11","stationName":"Far","lat":44.1590369575,"stationId":"CT_B_5-40_B_21"},{"lng":28.6282036296,"geohash":"sxu75mykmk","stationName":"KM 4","lat":44.1534340729,"stationId":"CT_B_5-40_B_22"},{"lng":28.62438,"geohash":"sxu75k7wkq","stationName":"Doraly Mall","lat":44.14555,"stationId":"CT_B_5-40_B_23"},{"lng":28.6219379893,"geohash":"sxu757cbek","stationName":"Pandurului","lat":44.1418047925,"stationId":"CT_B_5-40_B_24"},{"lng":28.6185,"geohash":"sxu755zqe2","stationName":"Facultativa","lat":44.14281,"stationId":"CT_B_5-40_B_25"},{"lng":28.6139342776,"geohash":"sxu75hhp0u","stationName":"Scoala Ion Minulescu","lat":44.1442915848,"stationId":"CT_B_5-40_B_26"},{"lng":28.6103615752,"geohash":"sxu75h3rvt","stationName":"Comarnic","lat":44.145800547,"stationId":"CT_B_5-40_B_27"},{"lng":28.6084411136,"geohash":"sxu75hb48y","stationName":"Soseaua din Vii","lat":44.1476482033,"stationId":"CT_B_5-40_B_28"},{"lng":28.6049542418,"geohash":"sxu74vmqp8","stationName":"Varful cu Dor","lat":44.150966141,"stationId":"CT_B_5-40_B_29"},{"lng":28.6026003352,"geohash":"sxu74vec8z","stationName":"CL Confort Urban - KM 5","lat":44.1516050727,"stationId":"CT_B_5-40_B_30"}],"routeWayPoints":[],"routeWayPointsEncoded":"syzlGk`vmD`JdODOCWKA}BuDkFiIg@e@Oq@_AeBiBiBUe@?YIi@eBg@}B}BqB_Cq@gAW_BFiBNiBhFw_@lBcLbAuE`BaEhDyDzBw@lC]d[kCdOsAjEu@|QaH~JcE`RuGzKoErNaF~MuCxEu@zCFzCbAnEdCdBrCpEfNpCvEvF~ElE_FzKmOrEmF`GsHhI~RdHbQbEnKvCxElM|QpBhErA~Fj@jDpBvI`@f@d@HvB}@dAaBl@kBdAY|BdCj@r@pKzEhE~AbCh@hF~@lFl@`FTzBBlAEjAPfBv@hRrM|ExB~EbBfVpJhj@zT{TjfAuPxP}Yh\\zBnD","routeName":"B_5-40_B"}},{"deviceType":"B","onlyOneRoute":false,"color":"8f4099","routeForward":{"duration":"00:30","name":"Gara CFR - Doraly - KM 5","moveDirection":"F","stations":[{"lng":28.6335777036,"geohash":"sxu778dm6e","stationName":"Gara CFR (Th.Burada)","lat":44.1687035498,"stationId":"CT_B_5B_F_0"},{"lng":28.63344,"geohash":"sxu77844xx","stationName":"Stadionul Portul","lat":44.16551,"stationId":"CT_B_5B_F_1"},{"lng":28.6320981971,"geohash":"sxu75x9681","stationName":"Facultativa","lat":44.1627313836,"stationId":"CT_B_5B_F_2"},{"lng":28.631453394,"geohash":"sxu75wbv11","stationName":"Far","lat":44.1590369575,"stationId":"CT_B_5B_F_3"},{"lng":28.6282036296,"geohash":"sxu75mykmk","stationName":"KM 4","lat":44.1534340729,"stationId":"CT_B_5B_F_4"},{"lng":28.62438,"geohash":"sxu75k7wkq","stationName":"Doraly Mall","lat":44.14555,"stationId":"CT_B_5B_F_5"},{"lng":28.6218,"geohash":"sxu7579b03","stationName":"KM 5","lat":44.14033,"stationId":"CT_B_5B_F_6"},{"lng":28.61939,"geohash":"sxu7570521","stationName":"Facultativa","lat":44.13814,"stationId":"CT_B_5B_F_7"},{"lng":28.61394,"geohash":"sxu755k494","stationName":"Hatman Arbore","lat":44.13939,"stationId":"CT_B_5B_F_8"},{"lng":28.61122,"geohash":"sxu7556n1d","stationName":"Mesteru Manole","lat":44.13999,"stationId":"CT_B_5B_F_9"},{"lng":28.60442,"geohash":"sxu74gjje2","stationName":"Tractorului","lat":44.13852,"stationId":"CT_B_5B_F_10"}],"routeWayPoints":[],"routeWayPointsEncoded":"muqlGwnwmDAMd@Un@a@pBsEh@K^LxBnCb@^pMbGdFvArEbAfEf@`EP|BPrBBxAAzA^~A~@rHhF|HbFrK`FtQpGpQjHh_@|NxSlIgRbtAvMjN","routeName":"B_5B_F"},"name":"Gara CFR -Doraly- KM5","lineNumber":"5B","routeBackward":{"duration":"00:18","name":"Km 5 - Doraly - Gara CFR","moveDirection":"B","stations":[{"lng":28.60442,"geohash":"sxu74gjje2","stationName":"Tractorului","lat":44.13852,"stationId":"CT_B_5B_B_0"},{"lng":28.60743,"geohash":"sxu74fzk97","stationName":"Fantanele","lat":44.13699,"stationId":"CT_B_5B_B_1"},{"lng":28.61037,"geohash":"sxu75517jv","stationName":"Muscatelor","lat":44.13812,"stationId":"CT_B_5B_B_2"},{"lng":28.6143634311,"geohash":"sxu755k36g","stationName":"Hatman Arbore","lat":44.1391793036,"stationId":"CT_B_5B_B_3"},{"lng":28.6192557803,"geohash":"sxu755pfuy","stationName":"Facultativa","lat":44.1380782574,"stationId":"CT_B_5B_B_4"},{"lng":28.618,"geohash":"sxu754ncrs","stationName":"Avia Motors","lat":44.13232,"stationId":"CT_B_5B_B_5"},{"lng":28.6201355449,"geohash":"sxu756bd1r","stationName":"Tiriac Auto ","lat":44.1365844976,"stationId":"CT_B_5B_B_6"},{"lng":28.6219809047,"geohash":"sxu7579bh3","stationName":"KM 5","lat":44.1403265257,"stationId":"CT_B_5B_B_7"},{"lng":28.62327,"geohash":"sxu757fyde","stationName":"Salciilor","lat":44.14283,"stationId":"CT_B_5B_B_8"},{"lng":28.6245665542,"geohash":"sxu75k7y0x","stationName":"Doraly Mall","lat":44.1455079961,"stationId":"CT_B_5B_B_9"},{"lng":28.6287615291,"geohash":"sxu75qnb4k","stationName":"KM 4","lat":44.1540768267,"stationId":"CT_B_5B_B_10"},{"lng":28.6316990844,"geohash":"sxu75wbuqv","stationName":"Far","lat":44.1589330484,"stationId":"CT_B_5B_B_11"},{"lng":28.632366418,"geohash":"sxu75x96qk","stationName":"Facultativa","lat":44.1627044459,"stationId":"CT_B_5B_B_12"},{"lng":28.63362,"geohash":"sxu77846ex","stationName":"Stadionul Portul","lat":44.16551,"stationId":"CT_B_5B_B_13"},{"lng":28.63298,"geohash":"sxu7789uhg","stationName":"Gara - cap linie 5b, 43C, 43M","lat":44.16849,"stationId":"CT_B_5B_B_14"}],"routeWayPoints":[],"routeWayPointsEncoded":"_tqlG}jwmDKIiBt@Y_@M}A~DuBtC{GlAnB`BtB~FvCpJtD~MhC|Fb@pEFtAGzBr@dWhP|k@dUlk@nT~FhCb@@`@MNALJb@`AzH~CrGdC~ItDtCbAx@Rv@FL`@EXWHMGKSoBiAiDyAeEeBgUyIwL|z@vRjGaCzf@yEwE","routeName":"B_5B_B"}},{"deviceType":"B","onlyOneRoute":false,"color":"8f4099","routeForward":{"duration":"00:25","name":"Tomis Nord - Poarta 2 ","moveDirection":"F","stations":[{"lng":28.62399,"geohash":"sxu7e27m76","stationName":"Cap Linie Tomis Nord","lat":44.21127,"stationId":"CT_B_42_F_0"},{"lng":28.62036,"geohash":"sxu7e208we","stationName":"Dobrila Eugeniu","lat":44.20909,"stationId":"CT_B_42_F_1"},{"lng":28.6234078399,"geohash":"sxu77r6btx","stationName":"Brotacei","lat":44.2049883857,"stationId":"CT_B_42_F_2"},{"lng":28.62465,"geohash":"sxu77qev6d","stationName":"Furnicuta","lat":44.20166,"stationId":"CT_B_42_F_3"},{"lng":28.62798798,"geohash":"sxu77qq283","stationName":"Tomis 3","lat":44.1994671676,"stationId":"CT_B_42_F_4"},{"lng":28.6332343808,"geohash":"sxu77tdhdw","stationName":"Dacia","lat":44.1960565754,"stationId":"CT_B_42_F_5"},{"lng":28.6396180383,"geohash":"sxu77sy9rk","stationName":"Colegiul Tehnic Tomis","lat":44.1913718813,"stationId":"CT_B_42_F_6"},{"lng":28.6421071282,"geohash":"sxu77u2892","stationName":"Spitalul Judetean","lat":44.1884747232,"stationId":"CT_B_42_F_7"},{"lng":28.64476,"geohash":"sxu77gdrzk","stationName":"Institutul de Proiectari","lat":44.18562,"stationId":"CT_B_42_F_8"},{"lng":28.643383771,"geohash":"sxu77fc7x4","stationName":"Scoala 13","lat":44.180761543,"stationId":"CT_B_42_F_9"},{"lng":28.6458095608,"geohash":"sxu77f7pxd","stationName":"Magazinul Tomis","lat":44.1786994808,"stationId":"CT_B_42_F_10"},{"lng":28.6521503917,"geohash":"sxu77czfek","stationName":"Poarta 2 Port","lat":44.1751067949,"stationId":"CT_B_42_F_11"}],"routeWayPoints":[],"routeWayPointsEncoded":"a_zlG{qumDeAt@fJ`OjIzFxA?lR_[hH`G|Vwa@lYah@zLgSbFsFvh@wc@tFlEfGvKnAv@lR}UtM{O`GyHE}@OgAs@aCRy@f@e@Va@LiB","routeName":"B_42_F"},"name":" Poarta 2  - Centru -Tomis Nord ","lineNumber":"42","routeBackward":{"duration":"00:25","name":" Poarta 2  - Tomis Nord","moveDirection":"B","stations":[{"lng":28.6521503917,"geohash":"sxu77czfek","stationName":"Poarta 2 Port","lat":44.1751067949,"stationId":"CT_B_42_B_0"},{"lng":28.6495969287,"geohash":"sxu77cvypc","stationName":"Fantasio","lat":44.1756919865,"stationId":"CT_B_42_B_1"},{"lng":28.6465928546,"geohash":"sxu77f7u9b","stationName":"Magazinul Tomis","lat":44.178173119,"stationId":"CT_B_42_B_2"},{"lng":28.6432121983,"geohash":"sxu77fcm5p","stationName":"Scoala 13","lat":44.1810423153,"stationId":"CT_B_42_B_3"},{"lng":28.6450693599,"geohash":"sxu77gdwy3","stationName":"Institutul de Proiectari","lat":44.1854316307,"stationId":"CT_B_42_B_4"},{"lng":28.6424729815,"geohash":"sxu77u0z1y","stationName":"Spitalul Judetean","lat":44.188247391,"stationId":"CT_B_42_B_5"},{"lng":28.6392110788,"geohash":"sxu77symmz","stationName":"Colegiul Tehnic Tomis","lat":44.1920707866,"stationId":"CT_B_42_B_6"},{"lng":28.6328899852,"geohash":"sxu77t9yft","stationName":"Dacia","lat":44.1964415653,"stationId":"CT_B_42_B_7"},{"lng":28.6276983014,"geohash":"sxu77qq49w","stationName":"Tomis 3","lat":44.1998336753,"stationId":"CT_B_42_B_8"},{"lng":28.6233949653,"geohash":"sxu77qfzv6","stationName":"Brotacei","lat":44.2034632475,"stationId":"CT_B_42_B_9"},{"lng":28.62356,"geohash":"sxu77r709r","stationName":"Brotacei","lat":44.20499,"stationId":"CT_B_42_B_10"},{"lng":28.62289071,"geohash":"sxu77rfd3s","stationName":"Scoala 29","lat":44.2080231623,"stationId":"CT_B_42_B_11"},{"lng":28.62399,"geohash":"sxu7e27m76","stationName":"Cap Linie Tomis Nord","lat":44.21127,"stationId":"CT_B_42_B_12"}],"routeWayPoints":[],"routeWayPointsEncoded":"s}rlG}e{mDq@`BW|@q@~@v@vCVhAL`Amh@dp@iAk@iA_BcE_IkFaFeGbFk@`@GN_AhA__@f[kDnDcC~CwDnGoMpUyG~LkNfVqMrTu@`@kAa@_AaA_DcC_DxFuBbAeBTeEQoAWsAa@uAm@iDkAkH{Dw@pB","routeName":"B_42_B"}},{"deviceType":"B","onlyOneRoute":false,"color":"8f4099","routeForward":{"duration":"00:55","name":"Gara CFR - Carrefour","moveDirection":"F","stations":[{"lng":28.63298,"geohash":"sxu7789uhg","stationName":"Gara - cap linie 5b, 43C, 43M","lat":44.16849,"stationId":"CT_B_43C_F_0"},{"lng":28.63819,"geohash":"sxu779j8yj","stationName":"Spital boli infectioase","lat":44.17069,"stationId":"CT_B_43C_F_1"},{"lng":28.64167,"geohash":"sxu77c81rk","stationName":"Politie","lat":44.17352,"stationId":"CT_B_43C_F_2"},{"lng":28.6445093146,"geohash":"sxu77cf612","stationName":"Republica","lat":44.1749963735,"stationId":"CT_B_43C_F_3"},{"lng":28.6489188662,"geohash":"sxu77fjw8h","stationName":"Fantasio","lat":44.1771655202,"stationId":"CT_B_43C_F_4"},{"lng":28.65205,"geohash":"sxu77frz90","stationName":"Centru","lat":44.17869,"stationId":"CT_B_43C_F_5"},{"lng":28.6496484271,"geohash":"sxu77gq015","stationName":"CMJ","lat":44.1829131038,"stationId":"CT_B_43C_F_6"},{"lng":28.6432926646,"geohash":"sxu77u33tj","stationName":"Spitalul Judeţean","lat":44.1886712821,"stationId":"CT_B_43C_F_7"},{"lng":28.6398808947,"geohash":"sxu77tnbmd","stationName":"Stadion","lat":44.1925638597,"stationId":"CT_B_43C_F_8"},{"lng":28.6328899852,"geohash":"sxu77t9yft","stationName":"Dacia","lat":44.1964415653,"stationId":"CT_B_43C_F_9"},{"lng":28.6276983014,"geohash":"sxu77qq49w","stationName":"Tomis 3","lat":44.1998336753,"stationId":"CT_B_43C_F_10"},{"lng":28.6222267948,"geohash":"sxu77r404h","stationName":"Boema","lat":44.203514033,"stationId":"CT_B_43C_F_11"},{"lng":28.6178258263,"geohash":"sxu77pwb7w","stationName":"Scapino","lat":44.2063173933,"stationId":"CT_B_43C_F_12"},{"lng":28.6122391215,"geohash":"sxu7e06c93","stationName":"Sere","lat":44.2106232863,"stationId":"CT_B_43C_F_13"},{"lng":28.60709,"geohash":"sxu7dbx53t","stationName":"Selgros","lat":44.21232,"stationId":"CT_B_43C_F_14"},{"lng":28.60439,"geohash":"sxu7dbt16d","stationName":"Carrefour","lat":44.21196,"stationId":"CT_B_43C_F_15"}],"routeWayPoints":[],"routeWayPointsEncoded":"gtqlGqkwmDb@QBe@Mg@OG[VGf@QVc@TYDMSGYOW_GiYk@{AoJaNo@mAsEsGyFyNgOi_@sBoGmEeLkEhDeClCyH~JsPbTmAfBcFnGee@d`@^dAPbBKb@Qd@o@|@mZni@mZnh@cKnQyRp]cKdM_@XwChEgFhIuDtF]XiC|D{@v@a@j@c@`@_AZe@TuAvAQIK@IFGJAN@PJTHBPAXNh@z@RNL@LELKXm@`@g@^[d@GRNRAPQBKT@ND`GvJFb@@h@GT@NUj@m@t@q@dA","routeName":"B_43C_F"},"name":"Gara CFR - Centru - Carrefour","lineNumber":"43C","routeBackward":{"duration":"00:55","name":"Carrefour - Gara CFR","moveDirection":"B","stations":[{"lng":28.60439,"geohash":"sxu7dbt16d","stationName":"Carrefour","lat":44.21196,"stationId":"CT_B_43C_B_0"},{"lng":28.60765,"geohash":"sxu7dbxmnx","stationName":"Selgros","lat":44.21263,"stationId":"CT_B_43C_B_1"},{"lng":28.6114130011,"geohash":"sxu7e065yp","stationName":"Sere","lat":44.2110416333,"stationId":"CT_B_43C_B_2"},{"lng":28.617763599,"geohash":"sxu77pqz6n","stationName":"Scapino","lat":44.206142812,"stationId":"CT_B_43C_B_3"},{"lng":28.6215079628,"geohash":"sxu77r193k","stationName":"Boema","lat":44.2037286159,"stationId":"CT_B_43C_B_4"},{"lng":28.62465,"geohash":"sxu77qev6d","stationName":"Furnicuta","lat":44.20166,"stationId":"CT_B_43C_B_5"},{"lng":28.62798798,"geohash":"sxu77qq283","stationName":"Tomis 3","lat":44.1994671676,"stationId":"CT_B_43C_B_6"},{"lng":28.6332343808,"geohash":"sxu77tdhdw","stationName":"Dacia","lat":44.1960565754,"stationId":"CT_B_43C_B_7"},{"lng":28.6396180383,"geohash":"sxu77sy9rk","stationName":"Colegiul Tehnic Tomis","lat":44.1913718813,"stationId":"CT_B_43C_B_8"},{"lng":28.6421071282,"geohash":"sxu77u2892","stationName":"Spitalul Judetean","lat":44.1884747232,"stationId":"CT_B_43C_B_9"},{"lng":28.64476,"geohash":"sxu77gdrzk","stationName":"Institutul de Proiectari","lat":44.18562,"stationId":"CT_B_43C_B_10"},{"lng":28.6452925197,"geohash":"sxu77g4z5x","stationName":"Colegiu Constantin Brătescu","lat":44.1827592267,"stationId":"CT_B_43C_B_11"},{"lng":28.6504,"geohash":"sxu77fqx4t","stationName":"Piata Unirii","lat":44.17863,"stationId":"CT_B_43C_B_12"},{"lng":28.64975,"geohash":"sxu77fq17w","stationName":"Centru","lat":44.17765,"stationId":"CT_B_43C_B_13"},{"lng":28.6457533232,"geohash":"sxu77cgnqk","stationName":"Republica","lat":44.1757496974,"stationId":"CT_B_43C_B_14"},{"lng":28.64167,"geohash":"sxu77c81rk","stationName":"Politie","lat":44.17352,"stationId":"CT_B_43C_B_15"},{"lng":28.63888,"geohash":"sxu779nhy2","stationName":"Spital boli infectioase","lat":44.17135,"stationId":"CT_B_43C_B_16"},{"lng":28.63298,"geohash":"sxu7789uhg","stationName":"Gara - cap linie 5b, 43C, 43M","lat":44.16849,"stationId":"CT_B_43C_B_17"}],"routeWayPoints":[],"routeWayPointsEncoded":"wczlGqxqmDGJzChFdAeB_DgFbAeANBHOCQOEMeAoGoK[KE[OWKEUDKQCO@S`@mAvD_GRi@tDuFfFiIvCiE^YbKeMxRq]ri@u_AjWyd@pBmC~D}Df_@yZbAc@z@uA`EcEzFdFjBkCxN_RzHaKdDwDtAlEdMb[zH~RrErGn@lAnJ`Nj@zArFpX`@z@Nn@LZ~Au@","routeName":"B_43C_B"}},{"deviceType":"B","onlyOneRoute":false,"color":"8f4099","routeForward":{"duration":"00:55","name":"Gara CFR - Maritimo","moveDirection":"F","stations":[{"lng":28.63298,"geohash":"sxu7789uhg","stationName":"Gara - cap linie 5b, 43C, 43M","lat":44.16849,"stationId":"CT_B_43M_F_0"},{"lng":28.63819,"geohash":"sxu779j8yj","stationName":"Spital boli infectioase","lat":44.17069,"stationId":"CT_B_43M_F_1"},{"lng":28.64167,"geohash":"sxu77c81rk","stationName":"Politie","lat":44.17352,"stationId":"CT_B_43M_F_2"},{"lng":28.6445093146,"geohash":"sxu77cf612","stationName":"Republica","lat":44.1749963735,"stationId":"CT_B_43M_F_3"},{"lng":28.6489188662,"geohash":"sxu77fjw8h","stationName":"Fantasio","lat":44.1771655202,"stationId":"CT_B_43M_F_4"},{"lng":28.65205,"geohash":"sxu77frz90","stationName":"Centru","lat":44.17869,"stationId":"CT_B_43M_F_5"},{"lng":28.6496484271,"geohash":"sxu77gq015","stationName":"CMJ","lat":44.1829131038,"stationId":"CT_B_43M_F_6"},{"lng":28.6432926646,"geohash":"sxu77u33tj","stationName":"Spitalul Judeţean","lat":44.1886712821,"stationId":"CT_B_43M_F_7"},{"lng":28.6398808947,"geohash":"sxu77tnbmd","stationName":"Stadion","lat":44.1925638597,"stationId":"CT_B_43M_F_8"},{"lng":28.6328899852,"geohash":"sxu77t9yft","stationName":"Dacia","lat":44.1964415653,"stationId":"CT_B_43M_F_9"},{"lng":28.6276983014,"geohash":"sxu77qq49w","stationName":"Tomis 3","lat":44.1998336753,"stationId":"CT_B_43M_F_10"},{"lng":28.6222267948,"geohash":"sxu77r404h","stationName":"Boema","lat":44.203514033,"stationId":"CT_B_43M_F_11"},{"lng":28.6178258263,"geohash":"sxu77pwb7w","stationName":"Scapino","lat":44.2063173933,"stationId":"CT_B_43M_F_12"},{"lng":28.6134294859,"geohash":"sxu77pe8jn","stationName":"Peco","lat":44.2062735319,"stationId":"CT_B_43M_F_13"},{"lng":28.6109940401,"geohash":"sxu77p1fk7","stationName":"Obor","lat":44.2038970276,"stationId":"CT_B_43M_F_14"},{"lng":28.6092243186,"geohash":"sxu77n885h","stationName":"CL Maritimo","lat":44.2007712785,"stationId":"CT_B_43M_F_15"}],"routeWayPoints":[],"routeWayPointsEncoded":"{tqlGyjwmD~@e@DMCc@GMOEOBc@`AKJoAb@U{A_GiYk@{AoJaNo@mAsEsGyFyNgOi_@uAmEkFgNkEhDeClCmHrJuQfUsApB{D|EgC|Bia@v\\^dA?PPbAC^Yx@o@z@mZni@y`@dr@qXjf@mA|AgBtB~CpE~ArA|CvCj\\n]~AcD","routeName":"B_43M_F"},"name":"Gara CFR - Centru - Maritimo","lineNumber":"43M","routeBackward":{"duration":"00:55","name":"Maritimo - Gara CFR","moveDirection":"B","stations":[{"lng":28.6092243186,"geohash":"sxu77n885h","stationName":"CL Maritimo","lat":44.2007712785,"stationId":"CT_B_43M_B_0"},{"lng":28.611391007,"geohash":"sxu77p45jw","stationName":"Obor","lat":44.2040431585,"stationId":"CT_B_43M_B_1"},{"lng":28.6133978358,"geohash":"sxu77p7ws3","stationName":"Peco","lat":44.2059893563,"stationId":"CT_B_43M_B_2"},{"lng":28.617763599,"geohash":"sxu77pqz6n","stationName":"Scapino","lat":44.206142812,"stationId":"CT_B_43M_B_3"},{"lng":28.6215079628,"geohash":"sxu77r193k","stationName":"Boema","lat":44.2037286159,"stationId":"CT_B_43M_B_4"},{"lng":28.62465,"geohash":"sxu77qev6d","stationName":"Furnicuta","lat":44.20166,"stationId":"CT_B_43M_B_5"},{"lng":28.62798798,"geohash":"sxu77qq283","stationName":"Tomis 3","lat":44.1994671676,"stationId":"CT_B_43M_B_6"},{"lng":28.6332343808,"geohash":"sxu77tdhdw","stationName":"Dacia","lat":44.1960565754,"stationId":"CT_B_43M_B_7"},{"lng":28.6396180383,"geohash":"sxu77sy9rk","stationName":"Colegiul Tehnic Tomis","lat":44.1913718813,"stationId":"CT_B_43M_B_8"},{"lng":28.6421071282,"geohash":"sxu77u2892","stationName":"Spitalul Judetean","lat":44.1884747232,"stationId":"CT_B_43M_B_9"},{"lng":28.64476,"geohash":"sxu77gdrzk","stationName":"Institutul de Proiectari","lat":44.18562,"stationId":"CT_B_43M_B_10"},{"lng":28.6452925197,"geohash":"sxu77g4z5x","stationName":"Colegiu Constantin Brătescu","lat":44.1827592267,"stationId":"CT_B_43M_B_11"},{"lng":28.6504,"geohash":"sxu77fqx4t","stationName":"Piata Unirii","lat":44.17863,"stationId":"CT_B_43M_B_12"},{"lng":28.6457533232,"geohash":"sxu77cgnqk","stationName":"Republica","lat":44.1757496974,"stationId":"CT_B_43M_B_13"},{"lng":28.64167,"geohash":"sxu77c81rk","stationName":"Politie","lat":44.17352,"stationId":"CT_B_43M_B_14"},{"lng":28.63888,"geohash":"sxu779nhy2","stationName":"Spital boli infectioase","lat":44.17135,"stationId":"CT_B_43M_B_15"},{"lng":28.63298,"geohash":"sxu7789uhg","stationName":"Gara - cap linie 5b, 43C, 43M","lat":44.16849,"stationId":"CT_B_43M_B_16"}],"routeWayPoints":[],"routeWayPointsEncoded":"y}wlGavrmDaBhDBI}TyUeGkGcC_C_BsAu@_AY}A?WHkALeAlA}ApVkc@pi@q_AtSc_@pBmC~D}DtGqFpVgSbAc@z@uA`EcEzFdFjBkCxCuDzSkXdDwDtAlEvDhJhQxc@rErGn@lAnJ`Nj@zA~FhYL`AT`AxAs@","routeName":"B_43M_B"}},{"deviceType":"B","onlyOneRoute":false,"color":"8f4099","routeForward":{"duration":"00:55","name":"Galeriile Soveja - Poarta 1 Port   ","moveDirection":"F","stations":[{"lng":28.6221787629,"geohash":"sxu77mf41j","stationName":"Galeriile Soveja imbarcare","lat":44.1969954552,"stationId":"CT_B_44_F_0"},{"lng":28.6179086862,"geohash":"sxu77nnumt","stationName":"Graniceri","lat":44.1987568988,"stationId":"CT_B_44_F_1"},{"lng":28.6136171518,"geohash":"sxu77neb98","stationName":"Facultativa (Euromaterna)","lat":44.2008336424,"stationId":"CT_B_44_F_2"},{"lng":28.6084529153,"geohash":"sxu77n8h9k","stationName":"Targ","lat":44.2015427325,"stationId":"CT_B_44_F_3"},{"lng":28.60746,"geohash":"sxu76yrq4p","stationName":"VIVO","lat":44.20044,"stationId":"CT_B_44_F_4"},{"lng":28.6047750703,"geohash":"sxu76vvk58","stationName":"Metro","lat":44.1973115332,"stationId":"CT_B_44_F_5"},{"lng":28.6039607516,"geohash":"sxu76uuz0t","stationName":"Facultativa","lat":44.192365006,"stationId":"CT_B_44_F_6"},{"lng":28.6084458528,"geohash":"sxu77h81c1","stationName":"Energia","lat":44.1900645478,"stationId":"CT_B_44_F_7"},{"lng":28.61167,"geohash":"sxu77h4rsp","stationName":"Cartierul Tineretului","lat":44.18834,"stationId":"CT_B_44_F_8"},{"lng":28.6150440869,"geohash":"sxu775uz4v","stationName":"Orizont","lat":44.1868719023,"stationId":"CT_B_44_F_9"},{"lng":28.6227366624,"geohash":"sxu777d2w0","stationName":"Institutul de Marina","lat":44.1843561298,"stationId":"CT_B_44_F_10"},{"lng":28.625644177,"geohash":"sxu777kdcf","stationName":"Frunzelor","lat":44.183379027,"stationId":"CT_B_44_F_11"},{"lng":28.6283693013,"geohash":"sxu777nt3q","stationName":"Răsuri","lat":44.1824557655,"stationId":"CT_B_44_F_12"},{"lng":28.63225314,"geohash":"sxu77dcmgz","stationName":"Rapsodia","lat":44.1811708691,"stationId":"CT_B_44_F_13"},{"lng":28.637193769,"geohash":"sxu77dsyyv","stationName":"Balada","lat":44.1799613483,"stationId":"CT_B_44_F_14"},{"lng":28.643383771,"geohash":"sxu77fc7x4","stationName":"Scoala 13","lat":44.180761543,"stationId":"CT_B_44_F_15"},{"lng":28.6458095608,"geohash":"sxu77f7pxd","stationName":"Magazinul Tomis","lat":44.1786994808,"stationId":"CT_B_44_F_16"},{"lng":28.6521503917,"geohash":"sxu77czfek","stationName":"Poarta 2 Port","lat":44.1751067949,"stationId":"CT_B_44_F_17"},{"lng":28.65661,"geohash":"sxu7k1e0g6","stationName":"Radio Romania","lat":44.17342,"stationId":"CT_B_44_F_18"},{"lng":28.65892,"geohash":"sxu7k1hu1j","stationName":"Poarta 1 Port coborare","lat":44.17125,"stationId":"CT_B_44_F_19"}],"routeWayPoints":[],"routeWayPointsEncoded":"s_rlGiq|mD{@b@sAx@{AfA{GfGsCdFmGfUIbAmBjEfAnFC^gi@~p@xLnVk@pFB|JJlIwDlAcAhCuj@z_Ck]nv@kXaKeHwDcHqGqGqGaJiK`HgKdHyIpDcKzCeL|FqMlAoH","routeName":"B_44_F"},"name":" Poarta 1 Port - Institutul de marina -Galeriile Soveja    ","lineNumber":"44","routeBackward":{"duration":"00:55","name":"  Poarta 1 Port - Galeriile Soveja","moveDirection":"B","stations":[{"lng":28.65918,"geohash":"sxu7k1hgx7","stationName":"Poarta 1 Port","lat":44.17115,"stationId":"CT_B_44_B_0"},{"lng":28.6564741126,"geohash":"sxu7k1e404","stationName":"Radio Romania","lat":44.1736339793,"stationId":"CT_B_44_B_1"},{"lng":28.65201,"geohash":"sxu77czgb4","stationName":"Poarta 2 Port","lat":44.17531,"stationId":"CT_B_44_B_2"},{"lng":28.6495969287,"geohash":"sxu77cvypc","stationName":"Fantasio","lat":44.1756919865,"stationId":"CT_B_44_B_3"},{"lng":28.6465928546,"geohash":"sxu77f7u9b","stationName":"Magazinul Tomis","lat":44.178173119,"stationId":"CT_B_44_B_4"},{"lng":28.6409595904,"geohash":"sxu77dr9ne","stationName":"I.G. Duca","lat":44.17758763,"stationId":"CT_B_44_B_5"},{"lng":28.6377945838,"geohash":"sxu77dtrhf","stationName":"Balada","lat":44.1799882781,"stationId":"CT_B_44_B_6"},{"lng":28.6322102246,"geohash":"sxu77dcr4v","stationName":"Rapsodia","lat":44.1813786088,"stationId":"CT_B_44_B_7"},{"lng":28.6287448106,"geohash":"sxu777nvf5","stationName":"Rasuri","lat":44.1825250106,"stationId":"CT_B_44_B_8"},{"lng":28.6251721082,"geohash":"sxu777khwu","stationName":"Frunzelor","lat":44.1836867777,"stationId":"CT_B_44_B_9"},{"lng":28.621910542,"geohash":"sxu7779ffu","stationName":"Institutul de Marina","lat":44.1847638922,"stationId":"CT_B_44_B_10"},{"lng":28.6158058343,"geohash":"sxu775vqs9","stationName":"Orizont","lat":44.1867641956,"stationId":"CT_B_44_B_11"},{"lng":28.6114713845,"geohash":"sxu77h61z8","stationName":"Cartierul Tineretului","lat":44.1886875003,"stationId":"CT_B_44_B_12"},{"lng":28.6081561742,"geohash":"sxu76uxgdm","stationName":"Energia","lat":44.1903876493,"stationId":"CT_B_44_B_13"},{"lng":28.6038539109,"geohash":"sxu76vh8qp","stationName":"Bariera CFR","lat":44.1925877694,"stationId":"CT_B_44_B_14"},{"lng":28.6053758851,"geohash":"sxu76vvz3d","stationName":"Metro","lat":44.197880736,"stationId":"CT_B_44_B_15"},{"lng":28.6077566138,"geohash":"sxu76yrx30","stationName":"Maritimo(VIVO)","lat":44.2006205246,"stationId":"CT_B_44_B_16"},{"lng":28.6130807099,"geohash":"sxu77ne6j1","stationName":"Facultativa (Euromaterna)","lat":44.2010951531,"stationId":"CT_B_44_B_17"},{"lng":28.6171469388,"geohash":"sxu77nnmeu","stationName":"Graniceri","lat":44.1989645765,"stationId":"CT_B_44_B_18"},{"lng":28.622307509,"geohash":"sxu77mf0uh","stationName":"Galeriile Soveja debarcare","lat":44.1967800785,"stationId":"CT_B_44_B_19"}],"routeWayPoints":[],"routeWayPointsEncoded":"q`rlGqr|mDWf@_@\\}@X}@t@}G|GoAjBsAzBk@bBmFdS]^q@hCk@zAh@fBVpAD`@?d@EZGPuAbBu@|AkJ`L{EfGzLbV_BrBmNzPSh@Ib@MhAY`FCbNCj@If@Ob@ILe@`@aAl@]^Yf@oHj[cDtNkDzNeE|QiHxZaBzGmAhDu[~v@wBxFUP_@Ng@FmP_HaAi@mImDwCiBaGeGaDiD[cBSMcCcAoGyGpKwOrDkEbAmCpHwUvCaGvAeEr@kDR{B","routeName":"B_44_B"}},{"deviceType":"B","onlyOneRoute":false,"color":"8f4099","routeForward":{"duration":"00:50","name":"  Poarta 2 Port - CFR Palas","moveDirection":"F","stations":[{"lng":28.6521503917,"geohash":"sxu77czfek","stationName":"Poarta 2 Port","lat":44.1751067949,"stationId":"CT_B_48_F_0"},{"lng":28.6495969287,"geohash":"sxu77cvypc","stationName":"Fantasio","lat":44.1756919865,"stationId":"CT_B_48_F_1"},{"lng":28.6465928546,"geohash":"sxu77f7u9b","stationName":"Magazinul Tomis","lat":44.178173119,"stationId":"CT_B_48_F_2"},{"lng":28.6422208539,"geohash":"sxu77f09sp","stationName":"Piata Grivitei","lat":44.1763233406,"stationId":"CT_B_48_F_3"},{"lng":28.64167,"geohash":"sxu77c81rk","stationName":"Politie","lat":44.17352,"stationId":"CT_B_48_F_4"},{"lng":28.6359015695,"geohash":"sxu779kh0c","stationName":"Liceul Ovidius","lat":44.172598985,"stationId":"CT_B_48_F_5"},{"lng":28.6297754041,"geohash":"sxu773r9dj","stationName":"Policlinica CFR","lat":44.1721911383,"stationId":"CT_B_48_F_6"},{"lng":28.625129818,"geohash":"sxu773hpvg","stationName":"Complex Intim","lat":44.1718833277,"stationId":"CT_B_48_F_7"},{"lng":28.6207846394,"geohash":"sxu7731n29","stationName":"Salvare","lat":44.1716139921,"stationId":"CT_B_48_F_8"},{"lng":28.6171261063,"geohash":"sxu771nkg7","stationName":"Topolog","lat":44.1713677413,"stationId":"CT_B_48_F_9"},{"lng":28.6087790719,"geohash":"sxu771038u","stationName":"Dispensar","lat":44.1708136732,"stationId":"CT_B_48_F_10"},{"lng":28.60235,"geohash":"sxu76bgx5j","stationName":"Alba Iulia","lat":44.17039,"stationId":"CT_B_48_F_11"},{"lng":28.5987690678,"geohash":"sxu76bbvzw","stationName":"Complex Bratianu","lat":44.170182645,"stationId":"CT_B_48_F_12"},{"lng":28.59122,"geohash":"sxu768g7pd","stationName":"IPMC","lat":44.16969,"stationId":"CT_B_48_F_13"},{"lng":28.58694,"geohash":"sxu768b37g","stationName":"Palas","lat":44.16939,"stationId":"CT_B_48_F_14"},{"lng":28.5813931814,"geohash":"sxu762sr6x","stationName":"Spital CFR","lat":44.1690694793,"stationId":"CT_B_48_F_15"},{"lng":28.576544284,"geohash":"sxu7628yc8","stationName":"CL 48","lat":44.1689459639,"stationId":"CT_B_48_F_16"}],"routeWayPoints":[],"routeWayPointsEncoded":"i}rlGec{mDJaASU{@pCy@jADVh@fBZ`BBd@Cb@Qb@yAjBk@lAUZsFtG}HvJzLbVvE_GdBmBjAwAxDxJrErGLnD?tAl@vUz@rZlF`rBdAd^bKvzD@t@KnAAAId@M`@?nA","routeName":"B_48_F"},"name":" Poarta 2 Port - CFR Palas  ","lineNumber":"48","routeBackward":{"duration":"00:50","name":"CFR Palas - Poarta 2 Port  ","moveDirection":"B","stations":[{"lng":28.576544284,"geohash":"sxu7628yc8","stationName":"CL 48","lat":44.1689459639,"stationId":"CT_B_48_B_0"},{"lng":28.58179,"geohash":"sxu762sw7b","stationName":"Spital CFR","lat":44.16886,"stationId":"CT_B_48_B_1"},{"lng":28.5880187741,"geohash":"sxu768c0v1","stationName":"Scoala 31","lat":44.1692961158,"stationId":"CT_B_48_B_2"},{"lng":28.59174,"geohash":"sxu768gfeu","stationName":"IPMC","lat":44.16961,"stationId":"CT_B_48_B_3"},{"lng":28.5974869719,"geohash":"sxu76bbh3d","stationName":"Complex Bratianu","lat":44.1699002192,"stationId":"CT_B_48_B_4"},{"lng":28.6023524991,"geohash":"sxu76bgw70","stationName":"Alba Iulia","lat":44.1702349744,"stationId":"CT_B_48_B_5"},{"lng":28.6107424489,"geohash":"sxu77119qx","stationName":"Dispensar","lat":44.1707890479,"stationId":"CT_B_48_B_6"},{"lng":28.6167398682,"geohash":"sxu771n5dr","stationName":"Topolog","lat":44.1711738181,"stationId":"CT_B_48_B_7"},{"lng":28.6206129781,"geohash":"sxu7730vk9","stationName":"Salvare","lat":44.1714431557,"stationId":"CT_B_48_B_8"},{"lng":28.6247435799,"geohash":"sxu7735yuf","stationName":"Complex Intim","lat":44.1717047968,"stationId":"CT_B_48_B_9"},{"lng":28.6297432176,"geohash":"sxu773r83r","stationName":"Policlinica CFR","lat":44.1719895225,"stationId":"CT_B_48_B_10"},{"lng":28.6355153314,"geohash":"sxu7797dzz","stationName":"Liceul Ovidius","lat":44.1724204562,"stationId":"CT_B_48_B_11"},{"lng":28.64167,"geohash":"sxu77c81rk","stationName":"Politie","lat":44.17352,"stationId":"CT_B_48_B_12"},{"lng":28.6445093146,"geohash":"sxu77cf612","stationName":"Republica","lat":44.1749963735,"stationId":"CT_B_48_B_13"},{"lng":28.6521503917,"geohash":"sxu77czfek","stationName":"Poarta 2 Port","lat":44.1751067949,"stationId":"CT_B_48_B_14"}],"routeWayPoints":[],"routeWayPointsEncoded":"o}rlGec{mDcBjD`AvEI`A}GjJzNj^zIfOs@dB^`PrGp}BrBt~@dDlnAZp@Ul@p@`SnDlwAc@UWg@","routeName":"B_48_B"}},{"deviceType":"B","onlyOneRoute":false,"color":"8f4099","routeForward":{"duration":"00:40","name":" Poarta 1 Port - Halta Traian","moveDirection":"F","stations":[{"lng":28.65918,"geohash":"sxu7k1hgx7","stationName":"Poarta 1 Port","lat":44.17115,"stationId":"CT_B_51_F_0"},{"lng":28.6564741126,"geohash":"sxu7k1e404","stationName":"Radio Romania","lat":44.1736339793,"stationId":"CT_B_51_F_1"},{"lng":28.65201,"geohash":"sxu77czgb4","stationName":"Poarta 2 Port","lat":44.17531,"stationId":"CT_B_51_F_2"},{"lng":28.6495969287,"geohash":"sxu77cvypc","stationName":"Fantasio","lat":44.1756919865,"stationId":"CT_B_51_F_3"},{"lng":28.6465928546,"geohash":"sxu77f7u9b","stationName":"Magazinul Tomis","lat":44.178173119,"stationId":"CT_B_51_F_4"},{"lng":28.6409595904,"geohash":"sxu77dr9ne","stationName":"I.G. Duca","lat":44.17758763,"stationId":"CT_B_51_F_5"},{"lng":28.6377945838,"geohash":"sxu77dtrhf","stationName":"Balada","lat":44.1799882781,"stationId":"CT_B_51_F_6"},{"lng":28.6330637923,"geohash":"sxu77d9yqe","stationName":"Poporului","lat":44.1798651077,"stationId":"CT_B_51_F_7"},{"lng":28.62856841,"geohash":"sxu776qttv","stationName":"Ion Roata","lat":44.1783724053,"stationId":"CT_B_51_F_8"},{"lng":28.6241266719,"geohash":"sxu7765qyk","stationName":"Brick","lat":44.1772105336,"stationId":"CT_B_51_F_9"},{"lng":28.62088,"geohash":"sxu77615df","stationName":"Primaverii","lat":44.17664,"stationId":"CT_B_51_F_10"},{"lng":28.61461,"geohash":"sxu774hebd","stationName":"Eliberarii","lat":44.17668,"stationId":"CT_B_51_F_11"},{"lng":28.60996,"geohash":"sxu7741nuq","stationName":"Facultativa","lat":44.17722,"stationId":"CT_B_51_F_12"},{"lng":28.6075,"geohash":"sxu76czm55","stationName":"Halta Traian","lat":44.17553,"stationId":"CT_B_51_F_13"}],"routeWayPoints":[],"routeWayPointsEncoded":"y`rlGer|mDo@t@_A^qIzIiA`ByAjCk@rAcArDsE|QWf@}@lAh@fBVpAD`@?d@EZGPuAbBu@|AiGpH}HvJzLbV_BrBmNzPSh@Ib@MhAY`FArLBzCh@v@d@tAf@bClDpOHp@rBfHLj@RnB~CtTvAjKfAva@?h@Ej@[hAcA|Ba@p@KDKNAP@Jm@bBuAjDK^OhAGhAFlBTvAh@rARX~HzH`@n@^jAZnAAn@","routeName":"B_51_F"},"name":"Poarta 1 Port - Halta Traian","lineNumber":"51","routeBackward":{"duration":"00:40","name":"Halta Traian - Poarta 1  ","moveDirection":"B","stations":[{"lng":28.6075,"geohash":"sxu76czm55","stationName":"Halta Traian","lat":44.17553,"stationId":"CT_B_51_B_0"},{"lng":28.60992,"geohash":"sxu7741jgm","stationName":"Facultativa","lat":44.17704,"stationId":"CT_B_51_B_1"},{"lng":28.6144492617,"geohash":"sxu774h6uu","stationName":"Eliberarii","lat":44.1765218637,"stationId":"CT_B_51_B_2"},{"lng":28.62032,"geohash":"sxu7760dty","stationName":"Primaverii","lat":44.17649,"stationId":"CT_B_51_B_3"},{"lng":28.624577283,"geohash":"sxu7765ybz","stationName":"Brick","lat":44.1772220755,"stationId":"CT_B_51_B_4"},{"lng":28.6305747023,"geohash":"sxu77d80u9","stationName":"Poporului","lat":44.1789071664,"stationId":"CT_B_51_B_5"},{"lng":28.637193769,"geohash":"sxu77dsyyv","stationName":"Balada","lat":44.1799613483,"stationId":"CT_B_51_B_6"},{"lng":28.643383771,"geohash":"sxu77fc7x4","stationName":"Scoala 13","lat":44.180761543,"stationId":"CT_B_51_B_7"},{"lng":28.6458095608,"geohash":"sxu77f7pxd","stationName":"Magazinul Tomis","lat":44.1786994808,"stationId":"CT_B_51_B_8"},{"lng":28.6521503917,"geohash":"sxu77czfek","stationName":"Poarta 2 Port","lat":44.1751067949,"stationId":"CT_B_51_B_9"},{"lng":28.65661,"geohash":"sxu7k1e0g6","stationName":"Radio Romania","lat":44.17342,"stationId":"CT_B_51_B_10"},{"lng":28.65892,"geohash":"sxu7k1hu1j","stationName":"Poarta 1 Port coborare","lat":44.17125,"stationId":"CT_B_51_B_11"}],"routeWayPoints":[],"routeWayPointsEncoded":"o_slGwlrmDHa@?YKS_@kAa@o@qFkFwA{Ai@kAQo@Ko@GoA?oADe@H_@Vw@vB}E^g@F?JIFQ?[Tw@x@iBFWPcC?i@gAwa@wAkK_DuTSoBMk@sBgHIq@aDiNs@kDW}A[qA_@{D@qJXaFLiAHc@}EiK_FkJrM_PdJiLrLqNfAuAR]J_@BWAa@UeAYk@i@gBhA}A~EuRbAsDj@sAxAkChAaB|ByBtGiFz@[b@U","routeName":"B_51_B"}},{"deviceType":"B","onlyOneRoute":false,"color":"8f4099","routeForward":{"duration":"00:30","name":"Poarta 1 - Centru - Aurel Vlaicu","moveDirection":"F","stations":[{"lng":28.65918,"geohash":"sxu7k1hgx7","stationName":"Poarta 1 Port","lat":44.17115,"stationId":"CT_B_51B_F_0"},{"lng":28.6564741126,"geohash":"sxu7k1e404","stationName":"Radio Romania","lat":44.1736339793,"stationId":"CT_B_51B_F_1"},{"lng":28.65201,"geohash":"sxu77czgb4","stationName":"Poarta 2 Port","lat":44.17531,"stationId":"CT_B_51B_F_2"},{"lng":28.6495969287,"geohash":"sxu77cvypc","stationName":"Fantasio","lat":44.1756919865,"stationId":"CT_B_51B_F_3"},{"lng":28.6465928546,"geohash":"sxu77f7u9b","stationName":"Magazinul Tomis","lat":44.178173119,"stationId":"CT_B_51B_F_4"},{"lng":28.6409595904,"geohash":"sxu77dr9ne","stationName":"I.G. Duca","lat":44.17758763,"stationId":"CT_B_51B_F_5"},{"lng":28.6377945838,"geohash":"sxu77dtrhf","stationName":"Balada","lat":44.1799882781,"stationId":"CT_B_51B_F_6"},{"lng":28.6330637923,"geohash":"sxu77d9yqe","stationName":"Poporului","lat":44.1798651077,"stationId":"CT_B_51B_F_7"},{"lng":28.62856841,"geohash":"sxu776qttv","stationName":"Ion Roata","lat":44.1783724053,"stationId":"CT_B_51B_F_8"},{"lng":28.6241266719,"geohash":"sxu7765qyk","stationName":"Brick","lat":44.1772105336,"stationId":"CT_B_51B_F_9"},{"lng":28.62088,"geohash":"sxu77615df","stationName":"Primaverii","lat":44.17664,"stationId":"CT_B_51B_F_10"},{"lng":28.61461,"geohash":"sxu774hebd","stationName":"Eliberarii","lat":44.17668,"stationId":"CT_B_51B_F_11"},{"lng":28.60996,"geohash":"sxu7741nuq","stationName":"Facultativa","lat":44.17722,"stationId":"CT_B_51B_F_12"},{"lng":28.6075,"geohash":"sxu76czm55","stationName":"Halta Traian","lat":44.17553,"stationId":"CT_B_51B_F_13"},{"lng":28.60358,"geohash":"sxu76csrzx","stationName":"Interioara 2","lat":44.1746507,"stationId":"CT_B_51B_F_14"},{"lng":28.6005944,"geohash":"sxu76f4260","stationName":"Interioara 3","lat":44.1760726,"stationId":"CT_B_51B_F_15"},{"lng":28.59712,"geohash":"sxu76drgcj","stationName":"Aurel Vlaicu 51b","lat":44.17807,"stationId":"CT_B_51B_F_16"}],"routeWayPoints":[],"routeWayPointsEncoded":"ierlGyn|mDyHrHqAlBmAvBoIzZ_AjCbA`GuPpT_EvE`M|UsQrUc@rAYjEAfHT~HQFIPDXTCb@zAnJx`@zClThBvN|Azc@g@rBoAfD[JEZBR_BtCoA|EChCLrAT~@zArCbHnGA`DFl@f@Jd@k@DzAhCp@`G`AVf@_HnQgI|R}IpS","routeName":"B_51B_F"},"name":"Poarta 1 - Centru - Aurel Vlaicu","lineNumber":"51B","routeBackward":{"duration":"00:30","name":"Aurel Vlaicu - Centru - Poarta 1","moveDirection":"B","stations":[{"lng":28.59712,"geohash":"sxu76drgcj","stationName":"Aurel Vlaicu 51b","lat":44.17807,"stationId":"CT_B_51B_B_0"},{"lng":28.60046,"geohash":"sxu76f40xp","stationName":"Interioara 3","lat":44.17615,"stationId":"CT_B_51B_B_1"},{"lng":28.60332,"geohash":"sxu76cu219","stationName":"Interioara 2","lat":44.17466,"stationId":"CT_B_51B_B_2"},{"lng":28.60992,"geohash":"sxu7741jgm","stationName":"Facultativa","lat":44.17704,"stationId":"CT_B_51B_B_3"},{"lng":28.6144492617,"geohash":"sxu774h6uu","stationName":"Eliberarii","lat":44.1765218637,"stationId":"CT_B_51B_B_4"},{"lng":28.62032,"geohash":"sxu7760dty","stationName":"Primaverii","lat":44.17649,"stationId":"CT_B_51B_B_5"},{"lng":28.624577283,"geohash":"sxu7765ybz","stationName":"Brick","lat":44.1772220755,"stationId":"CT_B_51B_B_6"},{"lng":28.6305747023,"geohash":"sxu77d80u9","stationName":"Poporului","lat":44.1789071664,"stationId":"CT_B_51B_B_7"},{"lng":28.637193769,"geohash":"sxu77dsyyv","stationName":"Balada","lat":44.1799613483,"stationId":"CT_B_51B_B_8"},{"lng":28.643383771,"geohash":"sxu77fc7x4","stationName":"Scoala 13","lat":44.180761543,"stationId":"CT_B_51B_B_9"},{"lng":28.6458095608,"geohash":"sxu77f7pxd","stationName":"Magazinul Tomis","lat":44.1786994808,"stationId":"CT_B_51B_B_10"},{"lng":28.6521503917,"geohash":"sxu77czfek","stationName":"Poarta 2 Port","lat":44.1751067949,"stationId":"CT_B_51B_B_11"},{"lng":28.65661,"geohash":"sxu7k1e0g6","stationName":"Radio Romania","lat":44.17342,"stationId":"CT_B_51B_B_12"},{"lng":28.65892,"geohash":"sxu7k1hu1j","stationName":"Poarta 1 Port coborare","lat":44.17125,"stationId":"CT_B_51B_B_13"}],"routeWayPoints":[],"routeWayPointsEncoded":"cpslGgjpmDkBbELHHc@dKcVdFcLhCaHrHkRa@a@yJmBQYB_AWsAiAyBuHoHo@_Ag@}AM{AAk@DyAv@qBdCwFZU@c@nAmCVkAHmAa@aHk@_RMkG{B{QeCiQuE_RmCkLoA_HIiMHyCNuB^eB{LaVrMuOfPoSvI_LiAmGRm@`@k@n@mARsBjGaUhDcG`CwBhFiErC_BI_@YD","routeName":"B_51B_B"}},{"deviceType":"B","onlyOneRoute":false,"color":"8f4099","routeForward":{"duration":"00:40","name":"Gara CFR - Sat vacanta","moveDirection":"F","stations":[{"lng":28.63252,"geohash":"sxu7789w6h","stationName":"Gara CFR - 100, 100MAMAIA, CiTy TOUR,   ","lat":44.16888,"stationId":"CT_B_100_F_0"},{"lng":28.6368671647,"geohash":"sxu779hxz7","stationName":"Policlinica 2","lat":44.1718817886,"stationId":"CT_B_100_F_1"},{"lng":28.6361483327,"geohash":"sxu77dh1ye","stationName":"Bucuresti","lat":44.1763448857,"stationId":"CT_B_100_F_2"},{"lng":28.635933756,"geohash":"sxu77du5ct","stationName":"Casa de Cultura","lat":44.1808161086,"stationId":"CT_B_100_F_3"},{"lng":28.6355797044,"geohash":"sxu77e7ucr","stationName":"Saguna","lat":44.1837471109,"stationId":"CT_B_100_F_4"},{"lng":28.6339381925,"geohash":"sxu77s6we0","stationName":"Trocadero","lat":44.1895013612,"stationId":"CT_B_100_F_5"},{"lng":28.633090078,"geohash":"sxu77sczzr","stationName":"Scoala Spectrum","lat":44.1925015497,"stationId":"CT_B_100_F_6"},{"lng":28.632135748,"geohash":"sxu77t9714","stationName":"Dacia","lat":44.1957788888,"stationId":"CT_B_100_F_7"},{"lng":28.6312023393,"geohash":"sxu77w297k","stationName":"Facultativa","lat":44.1996094636,"stationId":"CT_B_100_F_8"},{"lng":28.6302362076,"geohash":"sxu77qzzkb","stationName":"Bulevard","lat":44.2033628778,"stationId":"CT_B_100_F_9"},{"lng":28.62854,"geohash":"sxu7e2wttq","stationName":"Dispensarului","lat":44.21271,"stationId":"CT_B_100_F_10"},{"lng":28.6290131203,"geohash":"sxu77rzp0r","stationName":"Suceava","lat":44.2088537379,"stationId":"CT_B_100_F_11"},{"lng":28.6284015766,"geohash":"sxu7e3nt44","stationName":"Sat vacanta","lat":44.2153518185,"stationId":"CT_B_100_F_12"}],"routeWayPoints":[],"routeWayPointsEncoded":"yvqlGqhwmDOa@Mw@Mc@Q[_FcV{@L}Gp@uPnBkDPmEHc@KCEGCG@GFm@NyR`@aJ^iDRkDXmDh@sGrAmMrCol@xK_OzBub@lHs@JuAEgAh@iIfAuI|@yIt@{Mn@cP`@","routeName":"B_100_F"},"name":"Gara CFR - Sat vacanta","lineNumber":"100","routeBackward":{"duration":"00:40","name":"Sat vacanta - Gara CFR","moveDirection":"B","stations":[{"lng":28.6277315608,"geohash":"sxu7e3np6k","stationName":"Sat vacanta","lat":44.2157478322,"stationId":"CT_B_100_B_0"},{"lng":28.62845,"geohash":"sxu7e2ws7j","stationName":"Dispensarului","lat":44.21249,"stationId":"CT_B_100_B_1"},{"lng":28.6287502638,"geohash":"sxu7e2ncdh","stationName":"Suceava","lat":44.2092651761,"stationId":"CT_B_100_B_2"},{"lng":28.6299631587,"geohash":"sxu77qzxwm","stationName":"Bulevard","lat":44.2034355593,"stationId":"CT_B_100_B_3"},{"lng":28.6311857096,"geohash":"sxu77w0t4b","stationName":"Dacia","lat":44.1988591367,"stationId":"CT_B_100_B_4"},{"lng":28.632923781,"geohash":"sxu77scyem","stationName":"Scoala Spectrum","lat":44.1922746177,"stationId":"CT_B_100_B_5"},{"lng":28.633739709,"geohash":"sxu77s6my2","stationName":"Trocadero","lat":44.1893744268,"stationId":"CT_B_100_B_6"},{"lng":28.6352524749,"geohash":"sxu77ee81t","stationName":"Saguna","lat":44.1842972106,"stationId":"CT_B_100_B_7"},{"lng":28.6356172553,"geohash":"sxu77e5b41","stationName":"Casa de Cultura","lat":44.181527041,"stationId":"CT_B_100_B_8"},{"lng":28.6359278551,"geohash":"sxu77dh49r","stationName":"Bucuresti","lat":44.176495317,"stationId":"CT_B_100_B_9"},{"lng":28.636421918,"geohash":"sxu779krhy","stationName":"Policlinica 2","lat":44.1731399545,"stationId":"CT_B_100_B_10"},{"lng":28.63252,"geohash":"sxu7789w6h","stationName":"Gara CFR - 100, 100MAMAIA, CiTy TOUR,   ","lat":44.16888,"stationId":"CT_B_100_B_11"}],"routeWayPoints":[],"routeWayPointsEncoded":"y{zlG{ivmDCyBrTi@rH_@pPsAxPuBjABpAg@x]cGtMwBvDi@rCg@tIcBp]mGzOiDtGsAdDg@`Fa@rJ_@pGSvLUj@HJJF?HIb@OlEIjDQdEc@`Ei@fOaB~EbVDpAVj@\\I","routeName":"B_100_B"}},{"deviceType":"B","onlyOneRoute":false,"color":"8f4099","routeForward":{"duration":"00:40","name":"Gara CFR - Sat vacanta","moveDirection":"F","stations":[{"lng":28.63252,"geohash":"sxu7789w6h","stationName":"Gara CFR - 100, 100MAMAIA, CiTy TOUR,   ","lat":44.16888,"stationId":"CT_B_100 MAMAIA_F_0"},{"lng":28.6368671647,"geohash":"sxu779hxz7","stationName":"Policlinica 2","lat":44.1718817886,"stationId":"CT_B_100 MAMAIA_F_1"},{"lng":28.6361483327,"geohash":"sxu77dh1ye","stationName":"Bucuresti","lat":44.1763448857,"stationId":"CT_B_100 MAMAIA_F_2"},{"lng":28.635933756,"geohash":"sxu77du5ct","stationName":"Casa de Cultura","lat":44.1808161086,"stationId":"CT_B_100 MAMAIA_F_3"},{"lng":28.6355797044,"geohash":"sxu77e7ucr","stationName":"Saguna","lat":44.1837471109,"stationId":"CT_B_100 MAMAIA_F_4"},{"lng":28.6339381925,"geohash":"sxu77s6we0","stationName":"Trocadero","lat":44.1895013612,"stationId":"CT_B_100 MAMAIA_F_5"},{"lng":28.633090078,"geohash":"sxu77sczzr","stationName":"Scoala Spectrum","lat":44.1925015497,"stationId":"CT_B_100 MAMAIA_F_6"},{"lng":28.632135748,"geohash":"sxu77t9714","stationName":"Dacia","lat":44.1957788888,"stationId":"CT_B_100 MAMAIA_F_7"},{"lng":28.6312023393,"geohash":"sxu77w297k","stationName":"Facultativa","lat":44.1996094636,"stationId":"CT_B_100 MAMAIA_F_8"},{"lng":28.6302362076,"geohash":"sxu77qzzkb","stationName":"Bulevard","lat":44.2033628778,"stationId":"CT_B_100 MAMAIA_F_9"},{"lng":28.62854,"geohash":"sxu7e2wttq","stationName":"Dispensarului","lat":44.21271,"stationId":"CT_B_100 MAMAIA_F_10"},{"lng":28.6290131203,"geohash":"sxu77rzp0r","stationName":"Suceava","lat":44.2088537379,"stationId":"CT_B_100 MAMAIA_F_11"},{"lng":28.6284015766,"geohash":"sxu7e3nt44","stationName":"Sat vacanta","lat":44.2153518185,"stationId":"CT_B_100 MAMAIA_F_12"}],"routeWayPoints":[],"routeWayPointsEncoded":"yvqlGqhwmDOa@Mw@Mc@Q[_FcV{@L}Gp@uPnBkDPmEHc@KCEGCG@GFm@NyR`@aJ^iDRkDXmDh@sGrAmMrCol@xK_OzBub@lHs@JuAEgAh@iIfAuI|@yIt@{Mn@cP`@","routeName":"B_100 MAMAIA_F"},"name":"Gara - B-dul Lapusneanu - Mamaia","lineNumber":"100 MAMAIA","routeBackward":{"duration":"00:40","name":"Sat vacanta - Gara CFR","moveDirection":"B","stations":[{"lng":28.6277315608,"geohash":"sxu7e3np6k","stationName":"Sat vacanta","lat":44.2157478322,"stationId":"CT_B_100 MAMAIA_B_0"},{"lng":28.62845,"geohash":"sxu7e2ws7j","stationName":"Dispensarului","lat":44.21249,"stationId":"CT_B_100 MAMAIA_B_1"},{"lng":28.6287502638,"geohash":"sxu7e2ncdh","stationName":"Suceava","lat":44.2092651761,"stationId":"CT_B_100 MAMAIA_B_2"},{"lng":28.6299631587,"geohash":"sxu77qzxwm","stationName":"Bulevard","lat":44.2034355593,"stationId":"CT_B_100 MAMAIA_B_3"},{"lng":28.6311857096,"geohash":"sxu77w0t4b","stationName":"Dacia","lat":44.1988591367,"stationId":"CT_B_100 MAMAIA_B_4"},{"lng":28.632923781,"geohash":"sxu77scyem","stationName":"Scoala Spectrum","lat":44.1922746177,"stationId":"CT_B_100 MAMAIA_B_5"},{"lng":28.633739709,"geohash":"sxu77s6my2","stationName":"Trocadero","lat":44.1893744268,"stationId":"CT_B_100 MAMAIA_B_6"},{"lng":28.6352524749,"geohash":"sxu77ee81t","stationName":"Saguna","lat":44.1842972106,"stationId":"CT_B_100 MAMAIA_B_7"},{"lng":28.6356172553,"geohash":"sxu77e5b41","stationName":"Casa de Cultura","lat":44.181527041,"stationId":"CT_B_100 MAMAIA_B_8"},{"lng":28.6359278551,"geohash":"sxu77dh49r","stationName":"Bucuresti","lat":44.176495317,"stationId":"CT_B_100 MAMAIA_B_9"},{"lng":28.636421918,"geohash":"sxu779krhy","stationName":"Policlinica 2","lat":44.1731399545,"stationId":"CT_B_100 MAMAIA_B_10"},{"lng":28.63252,"geohash":"sxu7789w6h","stationName":"Gara CFR - 100, 100MAMAIA, CiTy TOUR,   ","lat":44.16888,"stationId":"CT_B_100 MAMAIA_B_11"}],"routeWayPoints":[],"routeWayPointsEncoded":"y{zlG{ivmDCyBrTi@rH_@pPsAxPuBjABpAg@x]cGtMwBvDi@rCg@tIcBp]mGzOiDtGsAdDg@`Fa@rJ_@pGSvLUj@HJJF?HIb@OlEIjDQdEc@`Ei@fOaB~EbVDpAVj@\\I","routeName":"B_100 MAMAIA_B"}},{"deviceType":"B","onlyOneRoute":false,"color":"8f4099","routeForward":{"duration":"00:55","name":"Gara CFR - Carrefour","moveDirection":"F","stations":[{"lng":28.63322,"geohash":"sxu778d4d2","stationName":"Cap linie 100C","lat":44.16822,"stationId":"CT_B_100C_F_0"},{"lng":28.6368671647,"geohash":"sxu779hxz7","stationName":"Policlinica 2","lat":44.1718817886,"stationId":"CT_B_100C_F_1"},{"lng":28.6361483327,"geohash":"sxu77dh1ye","stationName":"Bucuresti","lat":44.1763448857,"stationId":"CT_B_100C_F_2"},{"lng":28.635933756,"geohash":"sxu77du5ct","stationName":"Casa de Cultura","lat":44.1808161086,"stationId":"CT_B_100C_F_3"},{"lng":28.6355797044,"geohash":"sxu77e7ucr","stationName":"Saguna","lat":44.1837471109,"stationId":"CT_B_100C_F_4"},{"lng":28.6339381925,"geohash":"sxu77s6we0","stationName":"Trocadero","lat":44.1895013612,"stationId":"CT_B_100C_F_5"},{"lng":28.633090078,"geohash":"sxu77sczzr","stationName":"Scoala Spectrum","lat":44.1925015497,"stationId":"CT_B_100C_F_6"},{"lng":28.632135748,"geohash":"sxu77t9714","stationName":"Dacia","lat":44.1957788888,"stationId":"CT_B_100C_F_7"},{"lng":28.6312023393,"geohash":"sxu77w297k","stationName":"Facultativa","lat":44.1996094636,"stationId":"CT_B_100C_F_8"},{"lng":28.6302362076,"geohash":"sxu77qzzkb","stationName":"Bulevard","lat":44.2033628778,"stationId":"CT_B_100C_F_9"},{"lng":28.6290131203,"geohash":"sxu77rzp0r","stationName":"Suceava","lat":44.2088537379,"stationId":"CT_B_100C_F_10"},{"lng":28.62854,"geohash":"sxu7e2wttq","stationName":"Dispensarului","lat":44.21271,"stationId":"CT_B_100C_F_11"},{"lng":28.6284015766,"geohash":"sxu7e3nt44","stationName":"Sat vacanta","lat":44.2153518185,"stationId":"CT_B_100C_F_12"},{"lng":28.62612,"geohash":"sxu7e3hvsz","stationName":"Campus","lat":44.21546,"stationId":"CT_B_100C_F_13"},{"lng":28.62255,"geohash":"sxu7e2dqcv","stationName":"Smaraldului","lat":44.21292,"stationId":"CT_B_100C_F_14"},{"lng":28.6172548524,"geohash":"sxu7e0n6nr","stationName":"Penny","lat":44.2093689965,"stationId":"CT_B_100C_F_15"},{"lng":28.6122391215,"geohash":"sxu7e06c93","stationName":"Sere","lat":44.2106232863,"stationId":"CT_B_100C_F_16"},{"lng":28.60709,"geohash":"sxu7dbx53t","stationName":"Selgros","lat":44.21232,"stationId":"CT_B_100C_F_17"},{"lng":28.60439,"geohash":"sxu7dbt16d","stationName":"Carrefour","lat":44.21196,"stationId":"CT_B_100C_F_18"}],"routeWayPoints":[],"routeWayPointsEncoded":"yrqlGolwmDMq@IUOAUTIf@]Zq@Xe@iAYsAyAoI_BeIiARkMrAaEh@eEb@kDPmEHc@KCEGCG@GFm@NyR`@gCH{H\\sFd@mDh@sDt@mPpDol@xKaTdDg_@nGqAEkAh@oH`AoJbAyIt@eMn@sSf@cAU{@@UHcAEONCVPb@f@f@nBhCj@z@l@l@nE~GxBnDhAvBfCbEp@`AxDtGlPzWX|@RzAFhA?bASlCSz@i@hAmC|DqFtIuDtF]Xu@nAw@^iC|Di@\\_AVc@Xg@f@e@^KAKBMXB^NPHBJCXNr@dANFNAJGr@kAn@m@d@GDFPFH?JENYJ?XFnGlKJt@IJ?\\[j@GAyAvB","routeName":"B_100C_F"},"name":"Gara CFR -Lapusneanu- Carrefour","lineNumber":"100C","routeBackward":{"duration":"00:55","name":"Carrefour - Gara CFR","moveDirection":"B","stations":[{"lng":28.60439,"geohash":"sxu7dbt16d","stationName":"Carrefour","lat":44.21196,"stationId":"CT_B_100C_B_0"},{"lng":28.60709,"geohash":"sxu7dbx53t","stationName":"Selgros","lat":44.21232,"stationId":"CT_B_100C_B_1"},{"lng":28.6114130011,"geohash":"sxu7e065yp","stationName":"Sere","lat":44.2110416333,"stationId":"CT_B_100C_B_2"},{"lng":28.6171851149,"geohash":"sxu7e0n2u9","stationName":"Penny","lat":44.2091190582,"stationId":"CT_B_100C_B_3"},{"lng":28.6277315608,"geohash":"sxu7e3np6k","stationName":"Sat vacanta","lat":44.2157478322,"stationId":"CT_B_100C_B_4"},{"lng":28.62845,"geohash":"sxu7e2ws7j","stationName":"Dispensarului","lat":44.21249,"stationId":"CT_B_100C_B_5"},{"lng":28.6287502638,"geohash":"sxu7e2ncdh","stationName":"Suceava","lat":44.2092651761,"stationId":"CT_B_100C_B_6"},{"lng":28.6299631587,"geohash":"sxu77qzxwm","stationName":"Bulevard","lat":44.2034355593,"stationId":"CT_B_100C_B_7"},{"lng":28.6311857096,"geohash":"sxu77w0t4b","stationName":"Dacia","lat":44.1988591367,"stationId":"CT_B_100C_B_8"},{"lng":28.632923781,"geohash":"sxu77scyem","stationName":"Scoala Spectrum","lat":44.1922746177,"stationId":"CT_B_100C_B_9"},{"lng":28.633739709,"geohash":"sxu77s6my2","stationName":"Trocadero","lat":44.1893744268,"stationId":"CT_B_100C_B_10"},{"lng":28.6352524749,"geohash":"sxu77ee81t","stationName":"Saguna","lat":44.1842972106,"stationId":"CT_B_100C_B_11"},{"lng":28.6356172553,"geohash":"sxu77e5b41","stationName":"Casa de Cultura","lat":44.181527041,"stationId":"CT_B_100C_B_12"},{"lng":28.6359278551,"geohash":"sxu77dh49r","stationName":"Bucuresti","lat":44.176495317,"stationId":"CT_B_100C_B_13"},{"lng":28.636421918,"geohash":"sxu779krhy","stationName":"Policlinica 2","lat":44.1731399545,"stationId":"CT_B_100C_B_14"},{"lng":28.63322,"geohash":"sxu778d4d2","stationName":"Cap linie 100C","lat":44.16822,"stationId":"CT_B_100C_B_15"}],"routeWayPoints":[],"routeWayPointsEncoded":"wczlGsxqmDKTdD`FfBsCaDuE^k@LBJKAQIIISGq@yGqKWI?SM[KGKAODGIEOASBQ^cAvD_GRi@tDuFfFiIvCiE^YlEqFoF{IoOoVyDuGq@aA_C{D?UQMyDkGoE_HOm@IiA?[DQAqDrSg@dMo@xIu@fLmAvFw@nABlAg@~g@wInN{BnTcEbRgDzOiDtGsAdDg@`Fa@rJ_@pGSvLUj@HHJD?LIb@OlEIrEYlOgB|Gi@r@?TH|@`F`ErQjCqA","routeName":"B_100C_B"}},{"deviceType":"B","onlyOneRoute":false,"color":"8f4099","routeForward":{"duration":"01:00","name":"CET- GARA CFR- POARTA 1 PORT ","moveDirection":"F","stations":[{"lng":28.58667,"geohash":"sxu74wbjje","stationName":"C.L. Depou Tramvaie  101c (urcare)","lat":44.15905,"stationId":"CT_B_101C_F_0"},{"lng":28.5879,"geohash":"sxu74x3447","stationName":"I.A.M.S.A.T.","lat":44.16128,"stationId":"CT_B_101C_F_1"},{"lng":28.59037,"geohash":"sxu74xfbgc","stationName":"S.C.PALAS","lat":44.1638,"stationId":"CT_B_101C_F_2"},{"lng":28.59325,"geohash":"sxu74xuvr0","stationName":"Fabrica de paine","lat":44.16457,"stationId":"CT_B_101C_F_3"},{"lng":28.59624,"geohash":"sxu74xzphd","stationName":"Pan Dobrogea","lat":44.16488,"stationId":"CT_B_101C_F_4"},{"lng":28.59935,"geohash":"sxu74zcmj1","stationName":"Fabrica de paine Dobrogea","lat":44.16453,"stationId":"CT_B_101C_F_5"},{"lng":28.60066,"geohash":"sxu74zf35x","stationName":"Lukoil","lat":44.16388,"stationId":"CT_B_101C_F_6"},{"lng":28.6053930512,"geohash":"sxu74zmf3g","stationName":"Cumpenei","lat":44.1613236806,"stationId":"CT_B_101C_F_7"},{"lng":28.6100708238,"geohash":"sxu75nchyz","stationName":"Piata CET","lat":44.1590300303,"stationId":"CT_B_101C_F_8"},{"lng":28.6132690898,"geohash":"sxu75nee97","stationName":"Caraiman","lat":44.1574174945,"stationId":"CT_B_101C_F_9"},{"lng":28.6181936255,"geohash":"sxu75np1s4","stationName":"Complex","lat":44.15432238,"stationId":"CT_B_101C_F_10"},{"lng":28.6233756534,"geohash":"sxu75m6ysg","stationName":"KM 4-5","lat":44.1510662151,"stationId":"CT_B_101C_F_11"},{"lng":28.62455,"geohash":"sxu75kgu0m","stationName":"Dorally Mall","lat":44.1479,"stationId":"CT_B_101C_F_12"},{"lng":28.6245665542,"geohash":"sxu75k7y0x","stationName":"Doraly Mall","lat":44.1455079961,"stationId":"CT_B_101C_F_13"},{"lng":28.6287615291,"geohash":"sxu75qnb4k","stationName":"KM 4","lat":44.1540768267,"stationId":"CT_B_101C_F_14"},{"lng":28.6286864272,"geohash":"sxu75qyf88","stationName":"Aurora","lat":44.1586020776,"stationId":"CT_B_101C_F_15"},{"lng":28.62876,"geohash":"sxu75rnfd2","stationName":"Complex abator","lat":44.15998,"stationId":"CT_B_101C_F_16"},{"lng":28.630338668,"geohash":"sxu75rxgr0","stationName":"Piata abator","lat":44.1628506789,"stationId":"CT_B_101C_F_17"},{"lng":28.6327,"geohash":"sxu7789tn6","stationName":"Gara  101C, 101M","lat":44.16866,"stationId":"CT_B_101C_F_18"},{"lng":28.63819,"geohash":"sxu779j8yj","stationName":"Spital boli infectioase","lat":44.17069,"stationId":"CT_B_101C_F_19"},{"lng":28.6416,"geohash":"sxu77c2pm9","stationName":"Politie","lat":44.17316,"stationId":"CT_B_101C_F_20"},{"lng":28.6445093146,"geohash":"sxu77cf612","stationName":"Republica","lat":44.1749963735,"stationId":"CT_B_101C_F_21"},{"lng":28.65201,"geohash":"sxu77czgb4","stationName":"Poarta 2 Port","lat":44.17531,"stationId":"CT_B_101C_F_22"},{"lng":28.65661,"geohash":"sxu7k1e0g6","stationName":"Radio Romania","lat":44.17342,"stationId":"CT_B_101C_F_23"},{"lng":28.65892,"geohash":"sxu7k1hu1j","stationName":"Poarta 1 Port coborare","lat":44.17125,"stationId":"CT_B_101C_F_24"}],"routeWayPoints":[],"routeWayPointsEncoded":"iyolGyinmDkGrAk@S{I}W_@a@g@EeBReCf@i@ScByT}AsUA}BLeAhB}Epb@ueAfB_D`@eBhEeItAkBVMLWA[h@aBhYqi@`AqA`ByCjBoDx@eC`@s@|@{@XQ`BQn@BbBv@tJpHt@Rn@H`AKzBm@tASp@An@FEUFJmG}BeAc@o@_@wCgAiPsG}MqFwKaE_HuEuJ_HCnABn@G`LgMQcOwGiRyIq@WeA{@kB_AuAi@}A[qASiDrAUIW{Aa@aAuGi[s@wAeF_ImI_LsEiK}F{NwC}HpHwJYeCk@{Bj@}Aj@c@XkAFg@?i@`C{InCsJvCgFxGcGfBkAbB}@","routeName":"B_101C_F"},"name":" Centru - Gara CFR - CET","lineNumber":"101C","routeBackward":{"duration":"01:00","name":"  POARTA 1 PORT- GARA CFR - CET","moveDirection":"B","stations":[{"lng":28.65918,"geohash":"sxu7k1hgx7","stationName":"Poarta 1 Port","lat":44.17115,"stationId":"CT_B_101C_B_0"},{"lng":28.6564741126,"geohash":"sxu7k1e404","stationName":"Radio Romania","lat":44.1736339793,"stationId":"CT_B_101C_B_1"},{"lng":28.65201,"geohash":"sxu77czgb4","stationName":"Poarta 2 Port","lat":44.17531,"stationId":"CT_B_101C_B_2"},{"lng":28.6495969287,"geohash":"sxu77cvypc","stationName":"Fantasio","lat":44.1756919865,"stationId":"CT_B_101C_B_3"},{"lng":28.6465928546,"geohash":"sxu77f7u9b","stationName":"Magazinul Tomis","lat":44.178173119,"stationId":"CT_B_101C_B_4"},{"lng":28.6422208539,"geohash":"sxu77f09sp","stationName":"Piata Grivitei","lat":44.1763233406,"stationId":"CT_B_101C_B_5"},{"lng":28.64167,"geohash":"sxu77c81rk","stationName":"Politie","lat":44.17352,"stationId":"CT_B_101C_B_6"},{"lng":28.63888,"geohash":"sxu779nhy2","stationName":"Spital boli infectioase","lat":44.17135,"stationId":"CT_B_101C_B_7"},{"lng":28.6335777036,"geohash":"sxu778dm6e","stationName":"Gara CFR (Th.Burada)","lat":44.1687035498,"stationId":"CT_B_101C_B_8"},{"lng":28.629748582,"geohash":"sxu75rrx37","stationName":"Piata abator","lat":44.1621810827,"stationId":"CT_B_101C_B_9"},{"lng":28.6285898677,"geohash":"sxu75rndyr","stationName":"Complex abator","lat":44.1600567962,"stationId":"CT_B_101C_B_10"},{"lng":28.6298987857,"geohash":"sxu75qxshc","stationName":"Far","lat":44.1574936965,"stationId":"CT_B_101C_B_11"},{"lng":28.6282036296,"geohash":"sxu75mykmk","stationName":"KM 4","lat":44.1534340729,"stationId":"CT_B_101C_B_12"},{"lng":28.62438,"geohash":"sxu75k7wkq","stationName":"Doraly Mall","lat":44.14555,"stationId":"CT_B_101C_B_13"},{"lng":28.6219379893,"geohash":"sxu757cbek","stationName":"Pandurului","lat":44.1418047925,"stationId":"CT_B_101C_B_14"},{"lng":28.6185,"geohash":"sxu755zqe2","stationName":"Facultativa","lat":44.14281,"stationId":"CT_B_101C_B_15"},{"lng":28.62001,"geohash":"sxu75k83nw","stationName":"RATC","lat":44.14602,"stationId":"CT_B_101C_B_16"},{"lng":28.62197,"geohash":"sxu75kcys1","stationName":"RATC","lat":44.14831,"stationId":"CT_B_101C_B_17"},{"lng":28.62293,"geohash":"sxu75mdd6e","stationName":"KM 4-5","lat":44.15171,"stationId":"CT_B_101C_B_18"},{"lng":28.6187407962,"geohash":"sxu75np8bb","stationName":"Complex","lat":44.1541838234,"stationId":"CT_B_101C_B_19"},{"lng":28.6139117471,"geohash":"sxu75ns42r","stationName":"Caraiman","lat":44.1572242951,"stationId":"CT_B_101C_B_20"},{"lng":28.6097065798,"geohash":"sxu75p0bnq","stationName":"Piata CET","lat":44.1595795908,"stationId":"CT_B_101C_B_21"},{"lng":28.6043373338,"geohash":"sxu74zm433","stationName":"Bd Aurel Vlaicu","lat":44.1613132901,"stationId":"CT_B_101C_B_22"},{"lng":28.5981360665,"geohash":"sxu74z0e0f","stationName":"Furnirom","lat":44.160074114,"stationId":"CT_B_101C_B_23"},{"lng":28.59313,"geohash":"sxu74xhbkj","stationName":"R.A.T.C ","lat":44.15962,"stationId":"CT_B_101C_B_24"},{"lng":28.5898212186,"geohash":"sxu74wfqr5","stationName":"Facultativa","lat":44.1592659417,"stationId":"CT_B_101C_B_25"},{"lng":28.5871604672,"geohash":"sxu74wbsc5","stationName":"C.L. Depou Tramvaie  101c, 102P, 102N, ","lat":44.1590042454,"stationId":"CT_B_101C_B_26"}],"routeWayPoints":[],"routeWayPointsEncoded":"{_rlG{r|mDUVu@d@eAh@wEvEyAnAiA`BuBnDoAbDaAnDoC`LkAfDo@v@nAvGqV`\\bDpGbHdM~JiMlAbDbC~EvPfVv@|A`FdU|@tEbEiBj@iA^B|AdHnBd@pB~@`BjA|JvEvWtLnMPLcLv@s@b@?|OrKrJ`Ed]~MbHvCh@N~MnF`IvCpAn@eGzYyCkAwEoBaHaE{LoK_MaLLm@^gAKi@_@Mc@LQJKZ@nBEj@}CxGu@pBmYvi@iB`BBj@aA`CaE~H_AhASHC`@}@hDqQ`d@xFpEfB~AnA|BLvB{@fLMvB?pIFnDzAdY~@vRf@fM","routeName":"B_101C_B"}},{"deviceType":"B","onlyOneRoute":false,"color":"8f4099","routeForward":{"duration":"01:00","name":"Gara CFR - Maritimo","moveDirection":"F","stations":[{"lng":28.6335777036,"geohash":"sxu778dm6e","stationName":"Gara CFR (Th.Burada)","lat":44.1687035498,"stationId":"CT_B_101M_F_0"},{"lng":28.629748582,"geohash":"sxu75rrx37","stationName":"Piata abator","lat":44.1621810827,"stationId":"CT_B_101M_F_1"},{"lng":28.6285898677,"geohash":"sxu75rndyr","stationName":"Complex abator","lat":44.1600567962,"stationId":"CT_B_101M_F_2"},{"lng":28.6298987857,"geohash":"sxu75qxshc","stationName":"Far","lat":44.1574936965,"stationId":"CT_B_101M_F_3"},{"lng":28.6282036296,"geohash":"sxu75mykmk","stationName":"KM 4","lat":44.1534340729,"stationId":"CT_B_101M_F_4"},{"lng":28.62438,"geohash":"sxu75k7wkq","stationName":"Doraly Mall","lat":44.14555,"stationId":"CT_B_101M_F_5"},{"lng":28.6219379893,"geohash":"sxu757cbek","stationName":"Pandurului","lat":44.1418047925,"stationId":"CT_B_101M_F_6"},{"lng":28.6185,"geohash":"sxu755zqe2","stationName":"Facultativa","lat":44.14281,"stationId":"CT_B_101M_F_7"},{"lng":28.62001,"geohash":"sxu75k83nw","stationName":"RATC","lat":44.14602,"stationId":"CT_B_101M_F_8"},{"lng":28.62197,"geohash":"sxu75kcys1","stationName":"RATC","lat":44.14831,"stationId":"CT_B_101M_F_9"},{"lng":28.62293,"geohash":"sxu75mdd6e","stationName":"KM 4-5","lat":44.15171,"stationId":"CT_B_101M_F_10"},{"lng":28.6187407962,"geohash":"sxu75np8bb","stationName":"Complex","lat":44.1541838234,"stationId":"CT_B_101M_F_11"},{"lng":28.6139117471,"geohash":"sxu75ns42r","stationName":"Caraiman","lat":44.1572242951,"stationId":"CT_B_101M_F_12"},{"lng":28.6097065798,"geohash":"sxu75p0bnq","stationName":"Piata CET","lat":44.1595795908,"stationId":"CT_B_101M_F_13"},{"lng":28.6042654506,"geohash":"sxu74zkzxd","stationName":"Cumpenei","lat":44.1622211048,"stationId":"CT_B_101M_F_14"},{"lng":28.59871,"geohash":"sxu74zbzy0","stationName":"Pan Dobrogea","lat":44.165,"stationId":"CT_B_101M_F_15"},{"lng":28.5946760169,"geohash":"sxu769wjbp","stationName":"Alba Iulia","lat":44.1743034455,"stationId":"CT_B_101M_F_16"},{"lng":28.5986349574,"geohash":"sxu76g2zsk","stationName":"TAR SA","lat":44.1842045018,"stationId":"CT_B_101M_F_17"},{"lng":28.5957703582,"geohash":"sxu76dqfcw","stationName":"TAM","lat":44.1779038121,"stationId":"CT_B_101M_F_18"},{"lng":28.6001348487,"geohash":"sxu76u1gr6","stationName":"Scut SA","lat":44.1875834684,"stationId":"CT_B_101M_F_19"},{"lng":28.60196,"geohash":"sxu76ug2cv","stationName":"Bariera","lat":44.19129,"stationId":"CT_B_101M_F_20"},{"lng":28.6053758851,"geohash":"sxu76vvz3d","stationName":"Metro","lat":44.197880736,"stationId":"CT_B_101M_F_21"},{"lng":28.6092243186,"geohash":"sxu77n885h","stationName":"CL Maritimo","lat":44.2007712785,"stationId":"CT_B_101M_F_22"}],"routeWayPoints":[],"routeWayPointsEncoded":"muqlGgowmDz@c@d@i@r@tEfC`@|CbAv@b@dBtAhc@`SfMLH}KTc@ZOd@OxOzKpg@fSdJzDPDZR|GdCNPd@DfOjGaGjYoOeG}HqG{TaSf@qBMw@w@@[XM\\HfAEt@k@vAmBxDo@rBsYti@mAtA]VEd@q@zB{E|Im@z@YREb@i@~ByH`S}EbLoKtWeMp[cAnBu@bAy@x@_Al@aAVmARiMv@qIp@eETc@EIOWMOBORAd@}EVyCKkC]}AYcNwEgLeEcJ{Cs[yKmGcCqNiFoKmE?YIIMAOFaDiAwMuFEWISQDKPyHsDaA{AK]KKYH{Ac@aJaJ[yAOc@~@{DR?JFPRCj@Wj@","routeName":"B_101M_F"},"name":"Gara CFR - CET - Maritimo","lineNumber":"101M","routeBackward":{"duration":"01:00","name":"Maritimo - Gara CFR","moveDirection":"B","stations":[{"lng":28.6092243186,"geohash":"sxu77n885h","stationName":"CL Maritimo","lat":44.2007712785,"stationId":"CT_B_101M_B_0"},{"lng":28.60746,"geohash":"sxu76yrq4p","stationName":"VIVO","lat":44.20044,"stationId":"CT_B_101M_B_1"},{"lng":28.6047750703,"geohash":"sxu76vvk58","stationName":"Metro","lat":44.1973115332,"stationId":"CT_B_101M_B_2"},{"lng":28.6018750659,"geohash":"sxu76ug4xv","stationName":"Bariera","lat":44.1915899701,"stationId":"CT_B_101M_B_3"},{"lng":28.5997829429,"geohash":"sxu76u18zn","stationName":"TAM SA","lat":44.1871749561,"stationId":"CT_B_101M_B_4"},{"lng":28.5985802403,"geohash":"sxu76g8f5j","stationName":"TAR SA","lat":44.1846353462,"stationId":"CT_B_101M_B_5"},{"lng":28.5945258132,"geohash":"sxu769tcsd","stationName":"Alba Iulia","lat":44.1735485641,"stationId":"CT_B_101M_B_6"},{"lng":28.59935,"geohash":"sxu74zcmj1","stationName":"Fabrica de paine Dobrogea","lat":44.16453,"stationId":"CT_B_101M_B_7"},{"lng":28.60066,"geohash":"sxu74zf35x","stationName":"Lukoil","lat":44.16388,"stationId":"CT_B_101M_B_8"},{"lng":28.6053930512,"geohash":"sxu74zmf3g","stationName":"Cumpenei","lat":44.1613236806,"stationId":"CT_B_101M_B_9"},{"lng":28.6100708238,"geohash":"sxu75nchyz","stationName":"Piata CET","lat":44.1590300303,"stationId":"CT_B_101M_B_10"},{"lng":28.6132690898,"geohash":"sxu75nee97","stationName":"Caraiman","lat":44.1574174945,"stationId":"CT_B_101M_B_11"},{"lng":28.6181936255,"geohash":"sxu75np1s4","stationName":"Complex","lat":44.15432238,"stationId":"CT_B_101M_B_12"},{"lng":28.6233756534,"geohash":"sxu75m6ysg","stationName":"KM 4-5","lat":44.1510662151,"stationId":"CT_B_101M_B_13"},{"lng":28.62455,"geohash":"sxu75kgu0m","stationName":"Dorally Mall","lat":44.1479,"stationId":"CT_B_101M_B_14"},{"lng":28.6245665542,"geohash":"sxu75k7y0x","stationName":"Doraly Mall","lat":44.1455079961,"stationId":"CT_B_101M_B_15"},{"lng":28.6287615291,"geohash":"sxu75qnb4k","stationName":"KM 4","lat":44.1540768267,"stationId":"CT_B_101M_B_16"},{"lng":28.6286864272,"geohash":"sxu75qyf88","stationName":"Aurora","lat":44.1586020776,"stationId":"CT_B_101M_B_17"},{"lng":28.62876,"geohash":"sxu75rnfd2","stationName":"Complex abator","lat":44.15998,"stationId":"CT_B_101M_B_18"},{"lng":28.630338668,"geohash":"sxu75rxgr0","stationName":"Piata abator","lat":44.1628506789,"stationId":"CT_B_101M_B_19"},{"lng":28.6327,"geohash":"sxu7789tn6","stationName":"Gara  101C, 101M","lat":44.16866,"stationId":"CT_B_101M_B_20"}],"routeWayPoints":[],"routeWayPointsEncoded":"a~wlGusrmDd@_BFc@S[a@Cu@bDSPSVBZvNtNVZND`HjDlBv@Hf@NFNCDQvRzHHF@PHHVEvBdAxPxGt@\\Lf@J|@PTr@Gt@?jBGtV`JlDfAvDpApe@nP~Df@tDRpBApBIRXNFXKP]AWrG]hHo@jN{@tAYvA_AlAkAdAkBzAqD~KmY~KkX`GaObFsM~@yAZ[DYh@mBdEaIdAsAb@YHKBWCQx@{BnPoZbIqOhEqHXo@ZiA\\u@l@gAv@e@n@Sl@MjATbIpFpCtBh@ZtBKbD_AbC?HO]UwKiEq@]mBg@cBo@kOgG_OuFiGiCeG_EkDcCcE{CQzOgMOkOyGoMeG{DmBaBiAaBy@oBm@oC_@aBj@","routeName":"B_101M_B"}},{"deviceType":"B","onlyOneRoute":false,"color":"8f4099","routeForward":{"duration":"01:00","name":"Pescarie - Depou tramvaie","moveDirection":"F","stations":[{"lng":28.64215,"geohash":"sxu7ec0ddk","stationName":"Pescarie","lat":44.21493,"stationId":"CT_B_102_F_0"},{"lng":28.6426017276,"geohash":"sxu7eb8gsc","stationName":"Facultativa","lat":44.212341643,"stationId":"CT_B_102_F_1"},{"lng":28.642837762,"geohash":"sxu7eb346m","stationName":"Neptun TV","lat":44.2107724766,"stationId":"CT_B_102_F_2"},{"lng":28.6437604419,"geohash":"sxu77z3wpz","stationName":"Delfinariu","lat":44.2059355204,"stationId":"CT_B_102_F_3"},{"lng":28.6429504147,"geohash":"sxu77z1nm4","stationName":"Delfinariu","lat":44.2045757639,"stationId":"CT_B_102_F_4"},{"lng":28.6374036065,"geohash":"sxu77wv5ey","stationName":"Parcul copiilor","lat":44.2027529642,"stationId":"CT_B_102_F_5"},{"lng":28.6319,"geohash":"sxu77wc55t","stationName":"City Park","lat":44.20266,"stationId":"CT_B_102_F_6"},{"lng":28.62727,"geohash":"sxu77qt9rx","stationName":"Bd. Tomis","lat":44.201,"stationId":"CT_B_102_F_7"},{"lng":28.6237457982,"geohash":"sxu77mehtw","stationName":"Galeriile Soveja","lat":44.1960611907,"stationId":"CT_B_102_F_8"},{"lng":28.62422,"geohash":"sxu77kge8x","stationName":"Independentul","lat":44.19177,"stationId":"CT_B_102_F_9"},{"lng":28.6239603749,"geohash":"sxu77k726e","stationName":"Izvor","lat":44.1884454893,"stationId":"CT_B_102_F_10"},{"lng":28.6207739106,"geohash":"sxu777912r","stationName":"Baba Novac","lat":44.1845218652,"stationId":"CT_B_102_F_11"},{"lng":28.6182204476,"geohash":"sxu774znky","stationName":"Scoala 23","lat":44.1812519789,"stationId":"CT_B_102_F_12"},{"lng":28.6147657624,"geohash":"sxu774k9sk","stationName":"Eliberarii","lat":44.1776818254,"stationId":"CT_B_102_F_13"},{"lng":28.6099914304,"geohash":"sxu7711nm5","stationName":"Bd I C Bratianu","lat":44.1716259198,"stationId":"CT_B_102_F_14"},{"lng":28.6070517293,"geohash":"sxu74zzp0e","stationName":"Meconst","lat":44.1648844346,"stationId":"CT_B_102_F_15"},{"lng":28.6043373338,"geohash":"sxu74zm433","stationName":"Bd Aurel Vlaicu","lat":44.1613132901,"stationId":"CT_B_102_F_16"},{"lng":28.5981360665,"geohash":"sxu74z0e0f","stationName":"Furnirom","lat":44.160074114,"stationId":"CT_B_102_F_17"},{"lng":28.59313,"geohash":"sxu74xhbkj","stationName":"R.A.T.C ","lat":44.15962,"stationId":"CT_B_102_F_18"},{"lng":28.5898212186,"geohash":"sxu74wfqr5","stationName":"Facultativa","lat":44.1592659417,"stationId":"CT_B_102_F_19"},{"lng":28.5871604672,"geohash":"sxu74wbsc5","stationName":"C.L. Depou Tramvaie  101c, 102P, 102N, ","lat":44.1590042454,"stationId":"CT_B_102_F_20"}],"routeWayPoints":[],"routeWayPointsEncoded":"ovzlG{dymDj@S`AMfFe@PEn_@yCbFk@dCc@dCy@zB{@XhBl@zCPh@f@bAx@nAr@nA|AfDh@~AZfBJlA\\zOGx@?|@JnBEpGIpB?nEJhCVnDf@nFHh@XnAf@~@GN@NHFD?HEpB`ElCxDR^f@b@pCxDl@r@`BrAjBjAvCfAnDp@lI?dCCvSkBp@ABBJ?HIj@QXEj@Av@B|@JzA\\fAf@|CrBfQpMvBdBtCfCpFhEfBjAnA~@bGrDt@r@lFfG`EfEr@pA|AtADTJDLE|@nAz@j@bClC|CtCrFrFfAt@bBj@l@JjDD|AFZABPDDH@HGBOlDLzAJ`BVnBd@rChA|A`AlF|DhOfKpHjFxDxCzCzBh@h@f@|@Px@H|@ApAk@fGUrDGnD?bEN`GnB|_@rAzY","routeName":"B_102_F"},"name":"Pescarie - Depou tramvaie","lineNumber":"102","routeBackward":{"duration":"01:00","name":"Depou tramvaie - Pescarie","moveDirection":"B","stations":[{"lng":28.5868976107,"geohash":"sxu74wb7dg","stationName":"C.L. Depou Tramvaie 102N, 102P","lat":44.1587925785,"stationId":"CT_B_102_B_0"},{"lng":28.59063,"geohash":"sxu74wgjcz","stationName":"Facultativa","lat":44.1592,"stationId":"CT_B_102_B_1"},{"lng":28.59241,"geohash":"sxu74wur53","stationName":"R.A.T.C.","lat":44.15938,"stationId":"CT_B_102_B_2"},{"lng":28.597154378,"geohash":"sxu74xpccu","stationName":"Fabrica de bere","lat":44.1598701478,"stationId":"CT_B_102_B_3"},{"lng":28.60462,"geohash":"sxu74zm5pu","stationName":"Bd Aurel Vlaicu","lat":44.16146,"stationId":"CT_B_102_B_4"},{"lng":28.6074433318,"geohash":"sxu76bp23w","stationName":"Meconst","lat":44.1651191682,"stationId":"CT_B_102_B_5"},{"lng":28.61021,"geohash":"sxu7711kd4","stationName":"Bd I C Bratianu","lat":44.17132,"stationId":"CT_B_102_B_6"},{"lng":28.61499,"geohash":"sxu774kbcx","stationName":"Eliberarii","lat":44.17757,"stationId":"CT_B_102_B_7"},{"lng":28.6180165997,"geohash":"sxu774z52h","stationName":"Scoala 23","lat":44.1807287803,"stationId":"CT_B_102_B_8"},{"lng":28.62098,"geohash":"sxu77790j0","stationName":"Baba Novac","lat":44.18427,"stationId":"CT_B_102_B_9"},{"lng":28.6235,"geohash":"sxu77k4fru","stationName":"Izvor","lat":44.18742,"stationId":"CT_B_102_B_10"},{"lng":28.62446,"geohash":"sxu77kgsy2","stationName":"Independentul","lat":44.19195,"stationId":"CT_B_102_B_11"},{"lng":28.62403,"geohash":"sxu77m7qhj","stationName":"Galeriile Soveja","lat":44.19494,"stationId":"CT_B_102_B_12"},{"lng":28.62617,"geohash":"sxu77qkfy5","stationName":"Bd Tomis","lat":44.19986,"stationId":"CT_B_102_B_13"},{"lng":28.63128,"geohash":"sxu77wbdjj","stationName":"City Park","lat":44.20249,"stationId":"CT_B_102_B_14"},{"lng":28.63722,"geohash":"sxu77wufze","stationName":"Parcul copiilor","lat":44.20261,"stationId":"CT_B_102_B_15"},{"lng":28.6442432395,"geohash":"sxu77z6h70","stationName":"Delfinariu","lat":44.2055971224,"stationId":"CT_B_102_B_16"},{"lng":28.6431853763,"geohash":"sxu7eb37dx","stationName":"Neptun TV","lat":44.2109997218,"stationId":"CT_B_102_B_17"},{"lng":28.64288,"geohash":"sxu7eb9ngr","stationName":"Facultativa","lat":44.21293,"stationId":"CT_B_102_B_18"},{"lng":28.64246,"geohash":"sxu7ec0g38","stationName":"Pescarie","lat":44.21504,"stationId":"CT_B_102_B_19"}],"routeWayPoints":[],"routeWayPointsEncoded":"ixolG}knmDgEs|@GeHVoJj@oHFwBMoA]kA}GwFq[_U{DiCuDsC{FmBqJo@IOKEIFCL}GKcB[iB{@aBgBqGiG{DcEa@_AcA_ACQOUQ@wA}AYSa@O_NgO{EsCiFqDcOuLgLuIoE_DaDwBsCg@cAKqAH}@Qy@l@mBNgIx@gIb@mJ@cHaB_HaFyDgF_GwJUc@DK?KMMK@Yi@Uo@[_Bs@_IO}CCoGFyBBiEBaAFu@@uAKmAe@wQOuAa@cByB}EwCcFk@gCs@iEuDrA{Ab@sCb@kd@nE}DN_Eh@","routeName":"B_102_B"}},{"deviceType":"B","onlyOneRoute":false,"color":"8f4099","routeForward":{"duration":"00:35","name":"Faleza Nord - Depou tramvaie","moveDirection":"F","stations":[{"lng":28.6493877164,"geohash":"sxu77ztu7h","stationName":"Faleza Nord imbarcare","lat":44.2069906944,"stationId":"CT_B_102N_F_0"},{"lng":28.6472955933,"geohash":"sxu77zkkdm","stationName":"Facultativa","lat":44.2056678785,"stationId":"CT_B_102N_F_1"},{"lng":28.6429504147,"geohash":"sxu77z1nm4","stationName":"Delfinariu","lat":44.2045757639,"stationId":"CT_B_102N_F_2"},{"lng":28.6374036065,"geohash":"sxu77wv5ey","stationName":"Parcul copiilor","lat":44.2027529642,"stationId":"CT_B_102N_F_3"},{"lng":28.6319,"geohash":"sxu77wc55t","stationName":"City Park","lat":44.20266,"stationId":"CT_B_102N_F_4"},{"lng":28.62727,"geohash":"sxu77qt9rx","stationName":"Bd. Tomis","lat":44.201,"stationId":"CT_B_102N_F_5"},{"lng":28.6237457982,"geohash":"sxu77mehtw","stationName":"Galeriile Soveja","lat":44.1960611907,"stationId":"CT_B_102N_F_6"},{"lng":28.62422,"geohash":"sxu77kge8x","stationName":"Independentul","lat":44.19177,"stationId":"CT_B_102N_F_7"},{"lng":28.6239603749,"geohash":"sxu77k726e","stationName":"Izvor","lat":44.1884454893,"stationId":"CT_B_102N_F_8"},{"lng":28.6207739106,"geohash":"sxu777912r","stationName":"Baba Novac","lat":44.1845218652,"stationId":"CT_B_102N_F_9"},{"lng":28.6182204476,"geohash":"sxu774znky","stationName":"Scoala 23","lat":44.1812519789,"stationId":"CT_B_102N_F_10"},{"lng":28.6147657624,"geohash":"sxu774k9sk","stationName":"Eliberarii","lat":44.1776818254,"stationId":"CT_B_102N_F_11"},{"lng":28.6099914304,"geohash":"sxu7711nm5","stationName":"Bd I C Bratianu","lat":44.1716259198,"stationId":"CT_B_102N_F_12"},{"lng":28.6070517293,"geohash":"sxu74zzp0e","stationName":"Meconst","lat":44.1648844346,"stationId":"CT_B_102N_F_13"},{"lng":28.6043373338,"geohash":"sxu74zm433","stationName":"Bd Aurel Vlaicu","lat":44.1613132901,"stationId":"CT_B_102N_F_14"},{"lng":28.5981360665,"geohash":"sxu74z0e0f","stationName":"Furnirom","lat":44.160074114,"stationId":"CT_B_102N_F_15"},{"lng":28.59313,"geohash":"sxu74xhbkj","stationName":"R.A.T.C ","lat":44.15962,"stationId":"CT_B_102N_F_16"},{"lng":28.5898212186,"geohash":"sxu74wfqr5","stationName":"Facultativa","lat":44.1592659417,"stationId":"CT_B_102N_F_17"},{"lng":28.5871604672,"geohash":"sxu74wbsc5","stationName":"C.L. Depou Tramvaie  101c, 102P, 102N, ","lat":44.1590042454,"stationId":"CT_B_102N_F_18"}],"routeWayPoints":[],"routeWayPointsEncoded":"yeylGiqzmDn@w@Xk@lBc@pIji@\\nAdFlJl@xA^~AThCFnFNbGG|BLvDE|FG~ACtCRvF|@jJl@hCPT?`@HJPCtClFrBvCrFdHvAjAxAbAzDzAbDl@|G?rDC`Ju@tHu@~@?`Ba@t@@fAHpB^tBfAvK~H`HfFfN`LlHhFjDnBbNbOl@jAvApADLJNJBHCr@`AdAv@lMrMjBdB`Bt@hATlHJBNFHPCHO~FRvB\\zBn@rBz@jCbBbCjBdf@l]h@n@Xl@T`BAbBg@fFSvCKxC?tHJ`ElBd`@n@nLh@rM","routeName":"B_102N_F"},